{"type": "FeatureCollection", "crs": {"type": "name", "properties": {"name": "urn:ogc:def:crs:OGC:1.3:CRS84"}}, "features": [{"type": "Feature", "Name": "Acton Town", "geometry": {"type": "Point", "coordinates": [-0.279916688851386, 51.50264359676248]}, "Station ID": "940GZZLUACT", "Zone": "3", "Lines": "District Line, Piccadilly Line", "Number of Lines": 2}, {"type": "Feature", "Name": "Archway", "geometry": {"type": "Point", "coordinates": [-0.134745288767581, 51.565370996797775]}, "Station ID": "940GZZLUACY", "Zone": "2/3", "Lines": "Northern Line", "Number of Lines": 1}, {"type": "Feature", "Name": "Aldgate East", "geometry": {"type": "Point", "coordinates": [-0.071876588767481, 51.51514719676551]}, "Station ID": "940GZZLUADE", "Zone": "1", "Lines": "District Line, Hammersmith & City Line", "Number of Lines": 2}, {"type": "Feature", "Name": "Angel", "geometry": {"type": "Point", "coordinates": [-0.10612998877245, 51.53182149677656]}, "Station ID": "940GZZLUAGL", "Zone": "1", "Lines": "Northern Line, Crossrail 2", "Number of Lines": 2}, {"type": "Feature", "Name": "Aldgate", "geometry": {"type": "Point", "coordinates": [-0.075715588769394, 51.51409639676498]}, "Station ID": "940GZZLUALD", "Zone": "1", "Lines": "Circle Line, Metropolitan Line", "Number of Lines": 2}, {"type": "Feature", "Name": "Alperton", "geometry": {"type": "Point", "coordinates": [-0.2994547888414, 51.54055479678616]}, "Station ID": "940GZZLUALP", "Zone": "4", "Lines": "Piccadilly Line", "Number of Lines": 1}, {"type": "Feature", "Name": "Amersham", "geometry": {"type": "Point", "coordinates": [-0.608468688901916, 51.674206696875174]}, "Station ID": "940GZZLUAMS", "Zone": "9", "Lines": "Metropolitan Line", "Number of Lines": 1}, {"type": "Feature", "Name": "Arnos Grove", "geometry": {"type": "Point", "coordinates": [-0.133268788743383, 51.61647559682913]}, "Station ID": "940GZZLUASG", "Zone": "4", "Lines": "Piccadilly Line", "Number of Lines": 1}, {"type": "Feature", "Name": "Arsenal", "geometry": {"type": "Point", "coordinates": [-0.108099325493406, 51.55782418669154]}, "Station ID": "940GZZLUASL", "Zone": "2", "Lines": "Piccadilly Line", "Number of Lines": 1}, {"type": "Feature", "Name": "Bromley-by-Bow", "geometry": {"type": "Point", "coordinates": [-0.011585088740745, 51.52473659676975]}, "Station ID": "940GZZLUBBB", "Zone": "2/3", "Lines": "District Line, Hammersmith & City Line", "Number of Lines": 2}, {"type": "Feature", "Name": "Barbican", "geometry": {"type": "Point", "coordinates": [-0.097792388774743, 51.520214996769255]}, "Station ID": "940GZZLUBBN", "Zone": "1", "Lines": "Hammersmith & City Line, Circle Line, Metropolitan Line", "Number of Lines": 3}, {"type": "Feature", "Name": "Bounds Green", "geometry": {"type": "Point", "coordinates": [-0.124134488744299, 51.60706579682311]}, "Station ID": "940GZZLUBDS", "Zone": "3/4", "Lines": "Piccadilly Line", "Number of Lines": 1}, {"type": "Feature", "Name": "Becontree", "geometry": {"type": "Point", "coordinates": [0.127268911317215, 51.540323496774896]}, "Station ID": "940GZZLUBEC", "Zone": "5", "Lines": "District Line", "Number of Lines": 1}, {"type": "Feature", "Name": "Barkingside", "geometry": {"type": "Point", "coordinates": [0.088580011324457, 51.58564969680374]}, "Station ID": "940GZZLUBKE", "Zone": "4", "Lines": "Central Line", "Number of Lines": 1}, {"type": "Feature", "Name": "Blackfriars", "geometry": {"type": "Point", "coordinates": [-0.103139988780659, 51.51177409676423]}, "Station ID": "940GZZLUBKF", "Zone": "1", "Lines": "District Line, Circle Line", "Number of Lines": 2}, {"type": "Feature", "Name": "Barking", "geometry": {"type": "Point", "coordinates": [0.0812, 51.5395]}, "Station ID": "940GZZLUBKG", "Zone": "4", "Lines": "District Line, Hammersmith & City Line", "Number of Lines": 2}, {"type": "Feature", "Name": "Buckhurst Hill", "geometry": {"type": "Point", "coordinates": [0.046796811328004, 51.62594579682972]}, "Station ID": "940GZZLUBKH", "Zone": "5", "Lines": "Central Line", "Number of Lines": 1}, {"type": "Feature", "Name": "Bethnal Green", "geometry": {"type": "Point", "coordinates": [-0.055488488755668, 51.52747319677261]}, "Station ID": "940GZZLUBLG", "Zone": "2", "Lines": "Central Line", "Number of Lines": 1}, {"type": "Feature", "Name": "Balham", "geometry": {"type": "Point", "coordinates": [-0.152987888831141, 51.44316439672359]}, "Station ID": "940GZZLUBLM", "Zone": "3", "Lines": "Northern Line", "Number of Lines": 1}, {"type": "Feature", "Name": "Blackhorse Road", "geometry": {"type": "Point", "coordinates": [-0.0407, 51.587]}, "Station ID": "940GZZLUBLR", "Zone": "3", "Lines": "Victoria Line", "Number of Lines": 1}, {"type": "Feature", "Name": "Bermondsey", "geometry": {"type": "Point", "coordinates": [-0.063738188772592, 51.49772969675471]}, "Station ID": "940GZZLUBMY", "Zone": "2", "Lines": "Jubilee Line", "Number of Lines": 1}, {"type": "Feature", "Name": "Bond Street", "geometry": {"type": "Point", "coordinates": [-0.148986088796581, 51.514325396766864]}, "Station ID": "940GZZLUBND", "Zone": "1", "Lines": "Central Line, Jubilee Line", "Number of Lines": 2}, {"type": "Feature", "Name": "Bank", "geometry": {"type": "Point", "coordinates": [-0.088989625035467, 51.51344958357864]}, "Station ID": "940GZZLUBNK", "Zone": "1", "Lines": "Central Line, Northern Line, Waterloo & City Line", "Number of Lines": 3}, {"type": "Feature", "Name": "Borough", "geometry": {"type": "Point", "coordinates": [-0.093409988782017, 51.50109359675747]}, "Station ID": "940GZZLUBOR", "Zone": "1", "Lines": "Northern Line", "Number of Lines": 1}, {"type": "Feature", "Name": "Boston Manor", "geometry": {"type": "Point", "coordinates": [-0.324733388871653, 51.49574829675908]}, "Station ID": "940GZZLUBOS", "Zone": "4", "Lines": "Piccadilly Line", "Number of Lines": 1}, {"type": "Feature", "Name": "Barons Court", "geometry": {"type": "Point", "coordinates": [-0.213748788832051, 51.490259896753564]}, "Station ID": "940GZZLUBSC", "Zone": "2", "Lines": "District Line, Piccadilly Line", "Number of Lines": 2}, {"type": "Feature", "Name": "Baker Street", "geometry": {"type": "Point", "coordinates": [-0.155511988795233, 51.52250079677203]}, "Station ID": "940GZZLUBST", "Zone": "1", "Lines": "Bakerloo Line, Hammersmith & City Line, Circle Line, Jubilee Line, Metropolitan Line", "Number of Lines": 5}, {"type": "Feature", "Name": "Burnt Oak", "geometry": {"type": "Point", "coordinates": [-0.263952188799229, 51.60284489682383]}, "Station ID": "940GZZLUBTK", "Zone": "4", "Lines": "Northern Line", "Number of Lines": 1}, {"type": "Feature", "Name": "Brent Cross", "geometry": {"type": "Point", "coordinates": [-0.213553288792063, 51.5767001968066]}, "Station ID": "940GZZLUBTX", "Zone": "3", "Lines": "Northern Line", "Number of Lines": 1}, {"type": "Feature", "Name": "Bow Road", "geometry": {"type": "Point", "coordinates": [-0.024841588744629, 51.52687259677142]}, "Station ID": "940GZZLUBWR", "Zone": "2", "Lines": "District Line, Hammersmith & City Line", "Number of Lines": 2}, {"type": "Feature", "Name": "Bayswater", "geometry": {"type": "Point", "coordinates": [-0.18783688881208, 51.5123329967665]}, "Station ID": "940GZZLUBWT", "Zone": "1", "Lines": "District Line, Circle Line", "Number of Lines": 2}, {"type": "Feature", "Name": "Brixton", "geometry": {"type": "Point", "coordinates": [-0.11487200713231, 51.46260625608806]}, "Station ID": "940GZZLUBXN", "Zone": "2", "Lines": "Victoria Line", "Number of Lines": 1}, {"type": "Feature", "Name": "Belsize Park", "geometry": {"type": "Point", "coordinates": [-0.16470418878582, 51.55027509678925]}, "Station ID": "940GZZLUBZP", "Zone": "2", "Lines": "Northern Line", "Number of Lines": 1}, {"type": "Feature", "Name": "Chalfont & Latimer", "geometry": {"type": "Point", "coordinates": [-0.560820488885604, 51.66804189687038]}, "Station ID": "940GZZLUCAL", "Zone": "8", "Lines": "Metropolitan Line", "Number of Lines": 1}, {"type": "Feature", "Name": "Caledonian Road", "geometry": {"type": "Point", "coordinates": [-0.118367188769332, 51.54837349678696]}, "Station ID": "940GZZLUCAR", "Zone": "2", "Lines": "Piccadilly Line", "Number of Lines": 1}, {"type": "Feature", "Name": "Chalk Farm", "geometry": {"type": "Point", "coordinates": [-0.153469988784411, 51.54420179678525]}, "Station ID": "940GZZLUCFM", "Zone": "2", "Lines": "Northern Line", "Number of Lines": 1}, {"type": "Feature", "Name": "Covent Garden", "geometry": {"type": "Point", "coordinates": [-0.124196088787904, 51.51305999676551]}, "Station ID": "940GZZLUCGN", "Zone": "1", "Lines": "Piccadilly Line", "Number of Lines": 1}, {"type": "Feature", "Name": "Canning Town", "geometry": {"type": "Point", "coordinates": [0.008170711261506, 51.51403969676269]}, "Station ID": "940GZZLUCGT", "Zone": "2/3", "Lines": "Jubilee Line", "Number of Lines": 1}, {"type": "Feature", "Name": "Chancery Lane", "geometry": {"type": "Point", "coordinates": [-0.112121388781055, 51.51811159676832]}, "Station ID": "940GZZLUCHL", "Zone": "1", "Lines": "Central Line", "Number of Lines": 1}, {"type": "Feature", "Name": "Charing Cross", "geometry": {"type": "Point", "coordinates": [-0.127361788791746, 51.50733539676211]}, "Station ID": "940GZZLUCHX", "Zone": "1", "Lines": "Bakerloo Line, Northern Line", "Number of Lines": 2}, {"type": "Feature", "Name": "Cockfosters", "geometry": {"type": "Point", "coordinates": [-0.149350288733234, 51.651605096851206]}, "Station ID": "940GZZLUCKS", "Zone": "5", "Lines": "Piccadilly Line", "Number of Lines": 1}, {"type": "Feature", "Name": "Colindale", "geometry": {"type": "Point", "coordinates": [-0.24978328879726, 51.59534909681889]}, "Station ID": "940GZZLUCND", "Zone": "4", "Lines": "Northern Line", "Number of Lines": 1}, {"type": "Feature", "Name": "Clapham Common", "geometry": {"type": "Point", "coordinates": [-0.137588488816646, 51.46198609673468]}, "Station ID": "940GZZLUCPC", "Zone": "2", "Lines": "Northern Line", "Number of Lines": 1}, {"type": "Feature", "Name": "Canons Park", "geometry": {"type": "Point", "coordinates": [-0.294744288808776, 51.60775649682753]}, "Station ID": "940GZZLUCPK", "Zone": "5", "Lines": "Jubilee Line", "Number of Lines": 1}, {"type": "Feature", "Name": "Clapham North", "geometry": {"type": "Point", "coordinates": [-0.129898388812328, 51.46511779673645]}, "Station ID": "940GZZLUCPN", "Zone": "2", "Lines": "Northern Line", "Number of Lines": 1}, {"type": "Feature", "Name": "Clapham South", "geometry": {"type": "Point", "coordinates": [-0.147584288824662, 51.452762896729304]}, "Station ID": "940GZZLUCPS", "Zone": "2/3", "Lines": "Northern Line", "Number of Lines": 1}, {"type": "Feature", "Name": "Colliers Wood", "geometry": {"type": "Point", "coordinates": [-0.178090488852156, 51.418115096708874]}, "Station ID": "940GZZLUCSD", "Zone": "3", "Lines": "Northern Line", "Number of Lines": 1}, {"type": "Feature", "Name": "Chesham", "geometry": {"type": "Point", "coordinates": [-0.61092998888895, 51.705389596894854]}, "Station ID": "940GZZLUCSM", "Zone": "9", "Lines": "Metropolitan Line", "Number of Lines": 1}, {"type": "Feature", "Name": "Cannon Street", "geometry": {"type": "Point", "coordinates": [-0.090323188776073, 51.511391296763705]}, "Station ID": "940GZZLUCST", "Zone": "1", "Lines": "District Line, Circle Line", "Number of Lines": 2}, {"type": "Feature", "Name": "Camden Town", "geometry": {"type": "Point", "coordinates": [-0.142556588782758, 51.538940396781776]}, "Station ID": "940GZZLUCTN", "Zone": "2", "Lines": "Northern Line", "Number of Lines": 1}, {"type": "Feature", "Name": "Chigwell", "geometry": {"type": "Point", "coordinates": [0.074748211334469, 51.61782649682384]}, "Station ID": "940GZZLUCWL", "Zone": "4", "Lines": "Central Line", "Number of Lines": 1}, {"type": "Feature", "Name": "Chiswick Park", "geometry": {"type": "Point", "coordinates": [-0.268121488850621, 51.494579396757295]}, "Station ID": "940GZZLUCWP", "Zone": "3", "Lines": "District Line", "Number of Lines": 1}, {"type": "Feature", "Name": "Canada Water", "geometry": {"type": "Point", "coordinates": [-0.0493, 51.498]}, "Station ID": "940GZZLUCWR", "Zone": "2", "Lines": "Jubilee Line", "Number of Lines": 1}, {"type": "Feature", "Name": "Croxley", "geometry": {"type": "Point", "coordinates": [-0.441666888847873, 51.647149196855004]}, "Station ID": "940GZZLUCXY", "Zone": "7", "Lines": "Metropolitan Line", "Number of Lines": 1}, {"type": "Feature", "Name": "Chorleywood", "geometry": {"type": "Point", "coordinates": [-0.518355788874949, 51.65418089686091]}, "Station ID": "940GZZLUCYD", "Zone": "7", "Lines": "Metropolitan Line", "Number of Lines": 1}, {"type": "Feature", "Name": "Canary Wharf", "geometry": {"type": "Point", "coordinates": [-0.018611977529369, 51.50354062701804]}, "Station ID": "940GZZLUCYF", "Zone": "2", "Lines": "Jubilee Line", "Number of Lines": 1}, {"type": "Feature", "Name": "Debden", "geometry": {"type": "Point", "coordinates": [0.083573311350541, 51.64529289684032]}, "Station ID": "940GZZLUDBN", "Zone": "6", "Lines": "Central Line", "Number of Lines": 1}, {"type": "Feature", "Name": "Dagenham East", "geometry": {"type": "Point", "coordinates": [0.165641611332865, 51.54415999677582]}, "Station ID": "940GZZLUDGE", "Zone": "5", "Lines": "District Line", "Number of Lines": 1}, {"type": "Feature", "Name": "Dagenham Heathway", "geometry": {"type": "Point", "coordinates": [0.147699911325228, 51.541672196774975]}, "Station ID": "940GZZLUDGY", "Zone": "5", "Lines": "District Line", "Number of Lines": 1}, {"type": "Feature", "Name": "Dollis Hill", "geometry": {"type": "Point", "coordinates": [-0.239229088813149, 51.55207969679201]}, "Station ID": "940GZZLUDOH", "Zone": "3", "Lines": "Jubilee Line", "Number of Lines": 1}, {"type": "Feature", "Name": "Elephant & Castle", "geometry": {"type": "Point", "coordinates": [-0.100544988787323, 51.49538329675418]}, "Station ID": "940GZZLUEAC", "Zone": "1/2", "Lines": "Bakerloo Line, Northern Line", "Number of Lines": 2}, {"type": "Feature", "Name": "Eastcote", "geometry": {"type": "Point", "coordinates": [-0.397074988862522, 51.57660779681029]}, "Station ID": "940GZZLUEAE", "Zone": "5", "Lines": "Metropolitan Line, Piccadilly Line", "Number of Lines": 2}, {"type": "Feature", "Name": "East Acton", "geometry": {"type": "Point", "coordinates": [-0.247572188832545, 51.51686919677056]}, "Station ID": "940GZZLUEAN", "Zone": "2", "Lines": "Central Line", "Number of Lines": 1}, {"type": "Feature", "Name": "Ealing Broadway", "geometry": {"type": "Point", "coordinates": [-0.30154338885404, 51.5152]}, "Station ID": "940GZZLUEBY", "Zone": "3", "Lines": "Central Line, District Line", "Number of Lines": 2}, {"type": "Feature", "Name": "Ealing Common", "geometry": {"type": "Point", "coordinates": [-0.288181188851188, 51.50990669676708]}, "Station ID": "940GZZLUECM", "Zone": "3", "Lines": "District Line, Piccadilly Line", "Number of Lines": 2}, {"type": "Feature", "Name": "Earl's Court", "geometry": {"type": "Point", "coordinates": [-0.194168088824117, 51.49148169675391]}, "Station ID": "940GZZLUECT", "Zone": "1/2", "Lines": "District Line, Piccadilly Line", "Number of Lines": 2}, {"type": "Feature", "Name": "East Finchley", "geometry": {"type": "Point", "coordinates": [-0.165218588768774, 51.58756629681215]}, "Station ID": "940GZZLUEFY", "Zone": "3", "Lines": "Northern Line", "Number of Lines": 1}, {"type": "Feature", "Name": "Edgware", "geometry": {"type": "Point", "coordinates": [-0.275503688798539, 51.613989296830965]}, "Station ID": "940GZZLUEGW", "Zone": "5", "Lines": "Northern Line", "Number of Lines": 1}, {"type": "Feature", "Name": "East Ham", "geometry": {"type": "Point", "coordinates": [0.052011411289357, 51.5392428967767]}, "Station ID": "940GZZLUEHM", "Zone": "3/4", "Lines": "District Line, Hammersmith & City Line", "Number of Lines": 2}, {"type": "Feature", "Name": "Embankment", "geometry": {"type": "Point", "coordinates": [-0.122576588790111, 51.50701399676181]}, "Station ID": "940GZZLUEMB", "Zone": "1", "Lines": "Bakerloo Line, District Line, Circle Line, Northern Line", "Number of Lines": 4}, {"type": "Feature", "Name": "Epping", "geometry": {"type": "Point", "coordinates": [0.114527911384721, 51.69417689686912]}, "Station ID": "940GZZLUEPG", "Zone": "6", "Lines": "Central Line", "Number of Lines": 1}, {"type": "Feature", "Name": "Elm Park", "geometry": {"type": "Point", "coordinates": [0.197463611346884, 51.54964269677793]}, "Station ID": "940GZZLUEPK", "Zone": "6", "Lines": "District Line", "Number of Lines": 1}, {"type": "Feature", "Name": "East Putney", "geometry": {"type": "Point", "coordinates": [-0.211061788845485, 51.459069396734456]}, "Station ID": "940GZZLUEPY", "Zone": "2/3", "Lines": "District Line", "Number of Lines": 1}, {"type": "Feature", "Name": "Edgware Road", "geometry": {"type": "Point", "coordinates": [-0.170339088801731, 51.52048279677113]}, "Station ID": "940GZZLUERB", "Zone": "1", "Lines": "Bakerloo Line", "Number of Lines": 1}, {"type": "Feature", "Name": "Edgware Road", "geometry": {"type": "Point", "coordinates": [-0.168087788801234, 51.5197314967706]}, "Station ID": "940GZZLUERC", "Zone": "1", "Lines": "District Line, Hammersmith & City Line, Circle Line", "Number of Lines": 3}, {"type": "Feature", "Name": "Euston Square", "geometry": {"type": "Point", "coordinates": [-0.135533888786276, 51.52568399677351]}, "Station ID": "940GZZLUESQ", "Zone": "1", "Lines": "Hammersmith & City Line, Circle Line, Metropolitan Line", "Number of Lines": 3}, {"type": "Feature", "Name": "Euston", "geometry": {"type": "Point", "coordinates": [-0.134285634335371, 51.52843237909594]}, "Station ID": "940GZZLUEUS", "Zone": "1", "Lines": "Northern Line, Victoria Line", "Number of Lines": 2}, {"type": "Feature", "Name": "Fulham Broadway", "geometry": {"type": "Point", "coordinates": [-0.19528088882977, 51.48018419674701]}, "Station ID": "940GZZLUFBY", "Zone": "2", "Lines": "District Line", "Number of Lines": 1}, {"type": "Feature", "Name": "Farringdon", "geometry": {"type": "Point", "coordinates": [-0.104665688777305, 51.52020699676942]}, "Station ID": "940GZZLUFCN", "Zone": "1", "Lines": "Hammersmith & City Line, Circle Line, Metropolitan Line", "Number of Lines": 3}, {"type": "Feature", "Name": "Fairlop", "geometry": {"type": "Point", "coordinates": [0.091113211330209, 51.59594924680992]}, "Station ID": "940GZZLUFLP", "Zone": "4", "Lines": "Central Line", "Number of Lines": 1}, {"type": "Feature", "Name": "Finsbury Park", "geometry": {"type": "Point", "coordinates": [-0.1063375688362, 51.56463857774401]}, "Station ID": "940GZZLUFPK", "Zone": "2", "Lines": "Piccadilly Line, Victoria Line", "Number of Lines": 2}, {"type": "Feature", "Name": "Finchley Central", "geometry": {"type": "Point", "coordinates": [-0.191944088772822, 51.60068319682085]}, "Station ID": "940GZZLUFYC", "Zone": "4", "Lines": "Northern Line", "Number of Lines": 1}, {"type": "Feature", "Name": "Finchley Road", "geometry": {"type": "Point", "coordinates": [-0.18088378879325, 51.54737739678782]}, "Station ID": "940GZZLUFYR", "Zone": "2", "Lines": "Jubilee Line, Metropolitan Line", "Number of Lines": 2}, {"type": "Feature", "Name": "Gunnersbury", "geometry": {"type": "Point", "coordinates": [-0.275379788854744, 51.49161429675562]}, "Station ID": "940GZZLUGBY", "Zone": "3", "Lines": "District Line, Overground", "Number of Lines": 2}, {"type": "Feature", "Name": "Goodge Street", "geometry": {"type": "Point", "coordinates": [-0.134358188788237, 51.520514996770316]}, "Station ID": "940GZZLUGDG", "Zone": "1", "Lines": "Northern Line", "Number of Lines": 1}, {"type": "Feature", "Name": "Greenford", "geometry": {"type": "Point", "coordinates": [-0.344816288858051, 51.54218769678803]}, "Station ID": "940GZZLUGFD", "Zone": "4", "Lines": "Central Line", "Number of Lines": 1}, {"type": "Feature", "Name": "Grange Hill", "geometry": {"type": "Point", "coordinates": [0.092516111338766, 51.61312099682036]}, "Station ID": "940GZZLUGGH", "Zone": "4", "Lines": "Central Line", "Number of Lines": 1}, {"type": "Feature", "Name": "Golders Green", "geometry": {"type": "Point", "coordinates": [-0.194086188786676, 51.572397296803494]}, "Station ID": "940GZZLUGGN", "Zone": "3", "Lines": "Northern Line", "Number of Lines": 1}, {"type": "Feature", "Name": "Goldhawk Road", "geometry": {"type": "Point", "coordinates": [-0.226673988831524, 51.501946696760996]}, "Station ID": "940GZZLUGHK", "Zone": "2", "Lines": "Circle Line, Hammersmith & City Line", "Number of Lines": 2}, {"type": "Feature", "Name": "Green Park", "geometry": {"type": "Point", "coordinates": [-0.143118596634923, 51.506557424159396]}, "Station ID": "940GZZLUGPK", "Zone": "1", "Lines": "Jubilee Line, Piccadilly Line, Victoria Line", "Number of Lines": 3}, {"type": "Feature", "Name": "Great Portland Street", "geometry": {"type": "Point", "coordinates": [-0.143920888790271, 51.52383669677256]}, "Station ID": "940GZZLUGPS", "Zone": "1", "Lines": "Hammersmith & City Line, Circle Line, Metropolitan Line", "Number of Lines": 3}, {"type": "Feature", "Name": "Gants Hill", "geometry": {"type": "Point", "coordinates": [0.066350611312106, 51.576608996798974]}, "Station ID": "940GZZLUGTH", "Zone": "4", "Lines": "Central Line", "Number of Lines": 1}, {"type": "Feature", "Name": "Gloucester Road", "geometry": {"type": "Point", "coordinates": [-0.183471788818729, 51.49443837116438]}, "Station ID": "940GZZLUGTR", "Zone": "1", "Lines": "District Line, Circle Line, Piccadilly Line", "Number of Lines": 3}, {"type": "Feature", "Name": "Highbury & Islington", "geometry": {"type": "Point", "coordinates": [-0.10375, 51.547]}, "Station ID": "940GZZLUHAI", "Zone": "2", "Lines": "Victoria Line", "Number of Lines": 1}, {"type": "Feature", "Name": "Harrow & Wealdstone", "geometry": {"type": "Point", "coordinates": [-0.335398788831483, 51.59232129681883]}, "Station ID": "940GZZLUHAW", "Zone": "5", "Lines": "Bakerloo Line, Overground", "Number of Lines": 2}, {"type": "Feature", "Name": "Holborn", "geometry": {"type": "Point", "coordinates": [-0.1201771183767, 51.51761503507551]}, "Station ID": "940GZZLUHBN", "Zone": "1", "Lines": "Central Line, Piccadilly Line", "Number of Lines": 2}, {"type": "Feature", "Name": "High Barnet", "geometry": {"type": "Point", "coordinates": [-0.194815888750782, 51.65093239685195]}, "Station ID": "940GZZLUHBT", "Zone": "5", "Lines": "Northern Line", "Number of Lines": 1}, {"type": "Feature", "Name": "Hornchurch", "geometry": {"type": "Point", "coordinates": [0.218541611356492, 51.55400509677974]}, "Station ID": "940GZZLUHCH", "Zone": "6", "Lines": "District Line", "Number of Lines": 1}, {"type": "Feature", "Name": "Hendon Central", "geometry": {"type": "Point", "coordinates": [-0.226098688793861, 51.58313289681083]}, "Station ID": "940GZZLUHCL", "Zone": "3/4", "Lines": "Northern Line", "Number of Lines": 1}, {"type": "Feature", "Name": "Hillingdon", "geometry": {"type": "Point", "coordinates": [-0.450198388893623, 51.5537254967971]}, "Station ID": "940GZZLUHGD", "Zone": "6", "Lines": "Metropolitan Line, Piccadilly Line", "Number of Lines": 2}, {"type": "Feature", "Name": "Hanger Lane", "geometry": {"type": "Point", "coordinates": [-0.293286888843756, 51.530297696779726]}, "Station ID": "940GZZLUHGR", "Zone": "3", "Lines": "Central Line", "Number of Lines": 1}, {"type": "Feature", "Name": "Highgate", "geometry": {"type": "Point", "coordinates": [-0.145781988766043, 51.57764459680558]}, "Station ID": "940GZZLUHGT", "Zone": "3", "Lines": "Northern Line", "Number of Lines": 1}, {"type": "Feature", "Name": "Hainault", "geometry": {"type": "Point", "coordinates": [0.093471811334706, 51.60370949681459]}, "Station ID": "940GZZLUHLT", "Zone": "4", "Lines": "Central Line", "Number of Lines": 1}, {"type": "Feature", "Name": "Hatton Cross", "geometry": {"type": "Point", "coordinates": [-0.423116488922792, 51.46672059674292]}, "Station ID": "940GZZLUHNX", "Zone": "5/6", "Lines": "Piccadilly Line", "Number of Lines": 1}, {"type": "Feature", "Name": "Harrow-on-the-Hill", "geometry": {"type": "Point", "coordinates": [-0.336304688837816, 51.57923769681077]}, "Station ID": "940GZZLUHOH", "Zone": "5", "Lines": "Metropolitan Line", "Number of Lines": 1}, {"type": "Feature", "Name": "Hyde Park Corner", "geometry": {"type": "Point", "coordinates": [-0.15255738880319, 51.502960776760006]}, "Station ID": "940GZZLUHPC", "Zone": "1", "Lines": "Piccadilly Line", "Number of Lines": 1}, {"type": "Feature", "Name": "Holland Park", "geometry": {"type": "Point", "coordinates": [-0.205642088821125, 51.5072765967638]}, "Station ID": "940GZZLUHPK", "Zone": "2", "Lines": "Central Line", "Number of Lines": 1}, {"type": "Feature", "Name": "Heathrow Terminal 4", "geometry": {"type": "Point", "coordinates": [-0.445434588935117, 51.45865899673831]}, "Station ID": "940GZZLUHR4", "Zone": "6", "Lines": "Piccadilly Line, Crossrail", "Number of Lines": 2}, {"type": "Feature", "Name": "Heathrow Terminal 5", "geometry": {"type": "Point", "coordinates": [-0.490104288946148, 51.4725476967476]}, "Station ID": "940GZZLUHR5", "Zone": "6", "Lines": "Piccadilly Line, Crossrail", "Number of Lines": 2}, {"type": "Feature", "Name": "Heathrow Terminals 2 & 3", "geometry": {"type": "Point", "coordinates": [-0.455001288932504, 51.47250479674698]}, "Station ID": "940GZZLUHRC", "Zone": "6", "Lines": "Piccadilly Line, Crossrail", "Number of Lines": 2}, {"type": "Feature", "Name": "Hammersmith", "geometry": {"type": "Point", "coordinates": [-0.225082866974178, 51.49409630285559]}, "Station ID": "940GZZLUHSC", "Zone": "2", "Lines": "Circle Line, Hammersmith & City Line", "Number of Lines": 2}, {"type": "Feature", "Name": "Hammersmith", "geometry": {"type": "Point", "coordinates": [-0.223330888834803, 51.492122496754895]}, "Station ID": "940GZZLUHSD", "Zone": "2", "Lines": "District Line, Piccadilly Line", "Number of Lines": 2}, {"type": "Feature", "Name": "High Street Kensington", "geometry": {"type": "Point", "coordinates": [-0.19265998881917, 51.500941096759654]}, "Station ID": "940GZZLUHSK", "Zone": "1", "Lines": "District Line, Circle Line", "Number of Lines": 2}, {"type": "Feature", "Name": "Harlesden", "geometry": {"type": "Point", "coordinates": [-0.257953688827499, 51.53636999678273]}, "Station ID": "940GZZLUHSN", "Zone": "3", "Lines": "Bakerloo Line, Overground", "Number of Lines": 2}, {"type": "Feature", "Name": "Hampstead", "geometry": {"type": "Point", "coordinates": [-0.178195688788069, 51.55639419679331]}, "Station ID": "940GZZLUHTD", "Zone": "2/3", "Lines": "Northern Line", "Number of Lines": 1}, {"type": "Feature", "Name": "Hounslow Central", "geometry": {"type": "Point", "coordinates": [-0.366413088898848, 51.47130609674479]}, "Station ID": "940GZZLUHWC", "Zone": "4", "Lines": "Piccadilly Line", "Number of Lines": 1}, {"type": "Feature", "Name": "Hounslow East", "geometry": {"type": "Point", "coordinates": [-0.356313088894091, 51.47322839674579]}, "Station ID": "940GZZLUHWE", "Zone": "4", "Lines": "Piccadilly Line", "Number of Lines": 1}, {"type": "Feature", "Name": "Hounslow West", "geometry": {"type": "Point", "coordinates": [-0.386447088905531, 51.473525396746496]}, "Station ID": "940GZZLUHWT", "Zone": "5", "Lines": "Piccadilly Line", "Number of Lines": 1}, {"type": "Feature", "Name": "Holloway Road", "geometry": {"type": "Point", "coordinates": [-0.113008688765306, 51.55273029678952]}, "Station ID": "940GZZLUHWY", "Zone": "2", "Lines": "Piccadilly Line", "Number of Lines": 1}, {"type": "Feature", "Name": "Ickenham", "geometry": {"type": "Point", "coordinates": [-0.442056088886695, 51.56197239680205]}, "Station ID": "940GZZLUICK", "Zone": "6", "Lines": "Metropolitan Line, Piccadilly Line", "Number of Lines": 2}, {"type": "Feature", "Name": "Kilburn", "geometry": {"type": "Point", "coordinates": [-0.205286188802622, 51.54702469678818]}, "Station ID": "940GZZLUKBN", "Zone": "2", "Lines": "Jubilee Line", "Number of Lines": 1}, {"type": "Feature", "Name": "Kingsbury", "geometry": {"type": "Point", "coordinates": [-0.278622488813158, 51.58471649681295]}, "Station ID": "940GZZLUKBY", "Zone": "4", "Lines": "Jubilee Line", "Number of Lines": 1}, {"type": "Feature", "Name": "Kenton", "geometry": {"type": "Point", "coordinates": [-0.31661998882919, 51.581530496811766]}, "Station ID": "940GZZLUKEN", "Zone": "4", "Lines": "Bakerloo Line, Overground", "Number of Lines": 2}, {"type": "Feature", "Name": "Knightsbridge", "geometry": {"type": "Point", "coordinates": [-0.160591588806826, 51.50160569675937]}, "Station ID": "940GZZLUKNB", "Zone": "1", "Lines": "Piccadilly Line", "Number of Lines": 1}, {"type": "Feature", "Name": "Kennington", "geometry": {"type": "Point", "coordinates": [-0.105552802415015, 51.48881798603356]}, "Station ID": "940GZZLUKNG", "Zone": "2", "Lines": "Northern Line", "Number of Lines": 1}, {"type": "Feature", "Name": "Kensington (Olympia)", "geometry": {"type": "Point", "coordinates": [-0.20959268869726, 51.497533785323746]}, "Station ID": "940GZZLUKOY", "Zone": "2", "Lines": "District Line, Overground", "Number of Lines": 2}, {"type": "Feature", "Name": "Kilburn Park", "geometry": {"type": "Point", "coordinates": [-0.194133888803895, 51.535154496780635]}, "Station ID": "940GZZLUKPK", "Zone": "2", "Lines": "Bakerloo Line", "Number of Lines": 1}, {"type": "Feature", "Name": "Kentish Town", "geometry": {"type": "Point", "coordinates": [-0.14074017695061, 51.55031033576835]}, "Station ID": "940GZZLUKSH", "Zone": "2", "Lines": "Northern Line", "Number of Lines": 1}, {"type": "Feature", "Name": "Kensal Green", "geometry": {"type": "Point", "coordinates": [-0.224595888817518, 51.53057299677848]}, "Station ID": "940GZZLUKSL", "Zone": "2", "Lines": "Bakerloo Line, Overground", "Number of Lines": 2}, {"type": "Feature", "Name": "King's Cross St. Pancras", "geometry": {"type": "Point", "coordinates": [-0.122943588779288, 51.53060479677622]}, "Station ID": "940GZZLUKSX", "Zone": "1", "Lines": "Hammersmith & City Line, Circle Line, Metropolitan Line, Northern Line, Piccadilly Line, Victoria Line", "Number of Lines": 6}, {"type": "Feature", "Name": "Kew Gardens", "geometry": {"type": "Point", "coordinates": [-0.285013088865105, 51.47707729674689]}, "Station ID": "940GZZLUKWG", "Zone": "3/4", "Lines": "District Line, Overground", "Number of Lines": 2}, {"type": "Feature", "Name": "Ladbroke Grove", "geometry": {"type": "Point", "coordinates": [-0.210942188818503, 51.517268096770046]}, "Station ID": "940GZZLULAD", "Zone": "2", "Lines": "Circle Line, Hammersmith & City Line", "Number of Lines": 2}, {"type": "Feature", "Name": "Lambeth North", "geometry": {"type": "Point", "coordinates": [-0.112287488790059, 51.49888639675661]}, "Station ID": "940GZZLULBN", "Zone": "1", "Lines": "Bakerloo Line", "Number of Lines": 1}, {"type": "Feature", "Name": "Loughton", "geometry": {"type": "Point", "coordinates": [0.055254911338309, 51.64136059683887]}, "Station ID": "940GZZLULGN", "Zone": "6", "Lines": "Central Line", "Number of Lines": 1}, {"type": "Feature", "Name": "Lancaster Gate", "geometry": {"type": "Point", "coordinates": [-0.175144888807525, 51.51187129676595]}, "Station ID": "940GZZLULGT", "Zone": "1", "Lines": "Central Line", "Number of Lines": 1}, {"type": "Feature", "Name": "London Bridge", "geometry": {"type": "Point", "coordinates": [-0.089634981532614, 51.50502022478704]}, "Station ID": "940GZZLULNB", "Zone": "1", "Lines": "Jubilee Line, Northern Line", "Number of Lines": 2}, {"type": "Feature", "Name": "Latimer Road", "geometry": {"type": "Point", "coordinates": [-0.217909488822923, 51.513396696767806]}, "Station ID": "940GZZLULRD", "Zone": "2", "Lines": "Circle Line, Hammersmith & City Line", "Number of Lines": 2}, {"type": "Feature", "Name": "Leicester Square", "geometry": {"type": "Point", "coordinates": [-0.128489593621119, 51.51122271692724]}, "Station ID": "940GZZLULSQ", "Zone": "1", "Lines": "Northern Line, Piccadilly Line", "Number of Lines": 2}, {"type": "Feature", "Name": "Liverpool Street", "geometry": {"type": "Point", "coordinates": [-0.083213014052731, 51.51730003193537]}, "Station ID": "940GZZLULVT", "Zone": "1", "Lines": "Central Line, Hammersmith & City Line, Circle Line, Metropolitan Line", "Number of Lines": 4}, {"type": "Feature", "Name": "Leyton", "geometry": {"type": "Point", "coordinates": [-0.00540718872357, 51.556631296788986]}, "Station ID": "940GZZLULYN", "Zone": "3", "Lines": "Central Line", "Number of Lines": 1}, {"type": "Feature", "Name": "Leytonstone", "geometry": {"type": "Point", "coordinates": [0.008402611287096, 51.56858139679588]}, "Station ID": "940GZZLULYS", "Zone": "3/4", "Lines": "Central Line", "Number of Lines": 1}, {"type": "Feature", "Name": "Marble Arch", "geometry": {"type": "Point", "coordinates": [-0.15783558880026, 51.513539796766594]}, "Station ID": "940GZZLUMBA", "Zone": "1", "Lines": "Central Line", "Number of Lines": 1}, {"type": "Feature", "Name": "Morden", "geometry": {"type": "Point", "coordinates": [-0.194733688865706, 51.402345496699596]}, "Station ID": "940GZZLUMDN", "Zone": "4", "Lines": "Northern Line", "Number of Lines": 1}, {"type": "Feature", "Name": "Mile End", "geometry": {"type": "Point", "coordinates": [-0.03344488874851, 51.52535630677074]}, "Station ID": "940GZZLUMED", "Zone": "2", "Lines": "Central Line, District Line, Hammersmith & City Line", "Number of Lines": 3}, {"type": "Feature", "Name": "Moorgate", "geometry": {"type": "Point", "coordinates": [-0.088290110886707, 51.518119775424225]}, "Station ID": "940GZZLUMGT", "Zone": "1", "Lines": "Hammersmith & City Line, Circle Line, Metropolitan Line, Northern Line", "Number of Lines": 4}, {"type": "Feature", "Name": "Mill Hill East", "geometry": {"type": "Point", "coordinates": [-0.210150588776241, 51.608249996825954]}, "Station ID": "940GZZLUMHL", "Zone": "4", "Lines": "Northern Line", "Number of Lines": 1}, {"type": "Feature", "Name": "Monument", "geometry": {"type": "Point", "coordinates": [-0.0861, 51.51065]}, "Station ID": "940GZZLUMMT", "Zone": "1", "Lines": "District Line, Circle Line", "Number of Lines": 2}, {"type": "Feature", "Name": "Moor Park", "geometry": {"type": "Point", "coordinates": [-0.432234388852053, 51.629774096844024]}, "Station ID": "940GZZLUMPK", "Zone": "6/7", "Lines": "Metropolitan Line", "Number of Lines": 1}, {"type": "Feature", "Name": "Manor House", "geometry": {"type": "Point", "coordinates": [-0.096185685578747, 51.570490776389185]}, "Station ID": "940GZZLUMRH", "Zone": "2/3", "Lines": "Piccadilly Line", "Number of Lines": 1}, {"type": "Feature", "Name": "Mansion House", "geometry": {"type": "Point", "coordinates": [-0.093754088777106, 51.51191049676408]}, "Station ID": "940GZZLUMSH", "Zone": "1", "Lines": "District Line, Circle Line", "Number of Lines": 2}, {"type": "Feature", "Name": "Mornington Crescent", "geometry": {"type": "Point", "coordinates": [-0.138539288783378, 51.534357896778886]}, "Station ID": "940GZZLUMTC", "Zone": "2", "Lines": "Northern Line", "Number of Lines": 1}, {"type": "Feature", "Name": "Maida Vale", "geometry": {"type": "Point", "coordinates": [-0.18577458880322, 51.52980249677718]}, "Station ID": "940GZZLUMVL", "Zone": "2", "Lines": "Bakerloo Line", "Number of Lines": 1}, {"type": "Feature", "Name": "Marylebone", "geometry": {"type": "Point", "coordinates": [-0.163221588798229, 51.52227599677205]}, "Station ID": "940GZZLUMYB", "Zone": "1", "Lines": "Bakerloo Line", "Number of Lines": 1}, {"type": "Feature", "Name": "North Acton", "geometry": {"type": "Point", "coordinates": [-0.259713615198747, 51.523604742211035]}, "Station ID": "940GZZLUNAN", "Zone": "2/3", "Lines": "Central Line", "Number of Lines": 1}, {"type": "Feature", "Name": "Newbury Park", "geometry": {"type": "Point", "coordinates": [0.089947311320243, 51.575597996797576]}, "Station ID": "940GZZLUNBP", "Zone": "4", "Lines": "Central Line", "Number of Lines": 1}, {"type": "Feature", "Name": "Neasden", "geometry": {"type": "Point", "coordinates": [-0.249963088816267, 51.554168196793526]}, "Station ID": "940GZZLUNDN", "Zone": "3", "Lines": "Jubilee Line", "Number of Lines": 1}, {"type": "Feature", "Name": "North Ealing", "geometry": {"type": "Point", "coordinates": [-0.28853558884774, 51.51769459677186]}, "Station ID": "940GZZLUNEN", "Zone": "3", "Lines": "Piccadilly Line", "Number of Lines": 1}, {"type": "Feature", "Name": "Northfields", "geometry": {"type": "Point", "coordinates": [-0.313162346408212, 51.499603589322795]}, "Station ID": "940GZZLUNFD", "Zone": "3", "Lines": "Piccadilly Line", "Number of Lines": 1}, {"type": "Feature", "Name": "North Greenwich", "geometry": {"type": "Point", "coordinates": [0.003884811253405, 51.50009359675434]}, "Station ID": "940GZZLUNGW", "Zone": "2/3", "Lines": "Jubilee Line", "Number of Lines": 1}, {"type": "Feature", "Name": "North Harrow", "geometry": {"type": "Point", "coordinates": [-0.36279748884541, 51.58499959681483]}, "Station ID": "940GZZLUNHA", "Zone": "5", "Lines": "Metropolitan Line", "Number of Lines": 1}, {"type": "Feature", "Name": "Notting Hill Gate", "geometry": {"type": "Point", "coordinates": [-0.196094673572198, 51.509199775306286]}, "Station ID": "940GZZLUNHG", "Zone": "1/2", "Lines": "Central Line, District Line, Circle Line", "Number of Lines": 3}, {"type": "Feature", "Name": "Northolt", "geometry": {"type": "Point", "coordinates": [-0.36907098886456, 51.54839089679233]}, "Station ID": "940GZZLUNHT", "Zone": "5", "Lines": "Central Line", "Number of Lines": 1}, {"type": "Feature", "Name": "Northwick Park", "geometry": {"type": "Point", "coordinates": [-0.317777088831029, 51.57848819680991]}, "Station ID": "940GZZLUNKP", "Zone": "4", "Lines": "Metropolitan Line", "Number of Lines": 1}, {"type": "Feature", "Name": "Northwood", "geometry": {"type": "Point", "coordinates": [-0.423729388857348, 51.61078549683203]}, "Station ID": "940GZZLUNOW", "Zone": "6", "Lines": "Metropolitan Line", "Number of Lines": 1}, {"type": "Feature", "Name": "Northwood Hills", "geometry": {"type": "Point", "coordinates": [-0.408962788856327, 51.60036489682526]}, "Station ID": "940GZZLUNWH", "Zone": "6", "Lines": "Metropolitan Line", "Number of Lines": 1}, {"type": "Feature", "Name": "North Wembley", "geometry": {"type": "Point", "coordinates": [-0.303874788833062, 51.56240589679972]}, "Station ID": "940GZZLUNWY", "Zone": "4", "Lines": "Bakerloo Line, Overground", "Number of Lines": 2}, {"type": "Feature", "Name": "Oakwood", "geometry": {"type": "Point", "coordinates": [-0.131485188728441, 51.64737669684811]}, "Station ID": "940GZZLUOAK", "Zone": "5", "Lines": "Piccadilly Line", "Number of Lines": 1}, {"type": "Feature", "Name": "Old Street", "geometry": {"type": "Point", "coordinates": [-0.087541788768414, 51.52562839677231]}, "Station ID": "940GZZLUODS", "Zone": "1", "Lines": "Northern Line", "Number of Lines": 1}, {"type": "Feature", "Name": "Osterley", "geometry": {"type": "Point", "coordinates": [-0.352296488888926, 51.48112409675058]}, "Station ID": "940GZZLUOSY", "Zone": "4", "Lines": "Piccadilly Line", "Number of Lines": 1}, {"type": "Feature", "Name": "Oval", "geometry": {"type": "Point", "coordinates": [-0.112368488798028, 51.4818290967462]}, "Station ID": "940GZZLUOVL", "Zone": "2", "Lines": "Northern Line", "Number of Lines": 1}, {"type": "Feature", "Name": "Oxford Circus", "geometry": {"type": "Point", "coordinates": [-0.142080210790202, 51.515307857031786]}, "Station ID": "940GZZLUOXC", "Zone": "1", "Lines": "Bakerloo Line, Central Line, Victoria Line", "Number of Lines": 3}, {"type": "Feature", "Name": "Paddington (Praed St)", "geometry": {"type": "Point", "coordinates": [-0.174490688950375, 51.51595475691563]}, "Station ID": "940GZZLUPAC", "Zone": "1", "Lines": "Bakerloo Line, District Line, Circle Line", "Number of Lines": 3}, {"type": "Feature", "Name": "Paddington", "geometry": {"type": "Point", "coordinates": [-0.1767, 51.5175]}, "Station ID": "940GZZLUPAH", "Zone": "1", "Lines": "Hammersmith & City Line, Circle Line", "Number of Lines": 2}, {"type": "Feature", "Name": "Piccadilly Circus", "geometry": {"type": "Point", "coordinates": [-0.133441888792795, 51.509958796763854]}, "Station ID": "940GZZLUPCC", "Zone": "1", "Lines": "Bakerloo Line, Piccadilly Line", "Number of Lines": 2}, {"type": "Feature", "Name": "Pimlico", "geometry": {"type": "Point", "coordinates": [-0.132954188802404, 51.48889069675099]}, "Station ID": "940GZZLUPCO", "Zone": "1", "Lines": "Victoria Line", "Number of Lines": 1}, {"type": "Feature", "Name": "Park Royal", "geometry": {"type": "Point", "coordinates": [-0.283955288841933, 51.52652279677722]}, "Station ID": "940GZZLUPKR", "Zone": "3", "Lines": "Piccadilly Line", "Number of Lines": 1}, {"type": "Feature", "Name": "Plaistow", "geometry": {"type": "Point", "coordinates": [0.0165714112726, 51.53115739677286]}, "Station ID": "940GZZLUPLW", "Zone": "3", "Lines": "District Line, Hammersmith & City Line", "Number of Lines": 2}, {"type": "Feature", "Name": "Pinner", "geometry": {"type": "Point", "coordinates": [-0.380809788848867, 51.59271359681997]}, "Station ID": "940GZZLUPNR", "Zone": "5", "Lines": "Metropolitan Line", "Number of Lines": 1}, {"type": "Feature", "Name": "Preston Road", "geometry": {"type": "Point", "coordinates": [-0.295144488825284, 51.5720741968055]}, "Station ID": "940GZZLUPRD", "Zone": "4", "Lines": "Metropolitan Line", "Number of Lines": 1}, {"type": "Feature", "Name": "Parsons Green", "geometry": {"type": "Point", "coordinates": [-0.201087188834214, 51.475302496744156]}, "Station ID": "940GZZLUPSG", "Zone": "2", "Lines": "District Line", "Number of Lines": 1}, {"type": "Feature", "Name": "Perivale", "geometry": {"type": "Point", "coordinates": [-0.32357978885239, 51.53673969678427]}, "Station ID": "940GZZLUPVL", "Zone": "4", "Lines": "Central Line", "Number of Lines": 1}, {"type": "Feature", "Name": "Putney Bridge", "geometry": {"type": "Point", "coordinates": [-0.208817488840343, 51.46834499674007]}, "Station ID": "940GZZLUPYB", "Zone": "2", "Lines": "District Line", "Number of Lines": 1}, {"type": "Feature", "Name": "Queensbury", "geometry": {"type": "Point", "coordinates": [-0.286185488811717, 51.59417269681894]}, "Station ID": "940GZZLUQBY", "Zone": "4", "Lines": "Jubilee Line", "Number of Lines": 1}, {"type": "Feature", "Name": "Queen's Park", "geometry": {"type": "Point", "coordinates": [-0.205505588808722, 51.53399279678017]}, "Station ID": "940GZZLUQPS", "Zone": "2", "Lines": "Bakerloo Line, Overground", "Number of Lines": 2}, {"type": "Feature", "Name": "Queensway", "geometry": {"type": "Point", "coordinates": [-0.187229788812701, 51.51050039676537]}, "Station ID": "940GZZLUQWY", "Zone": "1", "Lines": "Central Line", "Number of Lines": 1}, {"type": "Feature", "Name": "Redbridge", "geometry": {"type": "Point", "coordinates": [0.045411011304326, 51.57636279679949]}, "Station ID": "940GZZLURBG", "Zone": "4", "Lines": "Central Line", "Number of Lines": 1}, {"type": "Feature", "Name": "Regent's Park", "geometry": {"type": "Point", "coordinates": [-0.146499588791418, 51.52344719677241]}, "Station ID": "940GZZLURGP", "Zone": "1", "Lines": "Bakerloo Line", "Number of Lines": 1}, {"type": "Feature", "Name": "Rickmansworth", "geometry": {"type": "Point", "coordinates": [-0.473582488863576, 51.6401814968513]}, "Station ID": "940GZZLURKW", "Zone": "7", "Lines": "Metropolitan Line", "Number of Lines": 1}, {"type": "Feature", "Name": "Richmond", "geometry": {"type": "Point", "coordinates": [-0.30118438887759, 51.46333129673877]}, "Station ID": "940GZZLURMD", "Zone": "4", "Lines": "District Line, Overground", "Number of Lines": 2}, {"type": "Feature", "Name": "Ruislip Gardens", "geometry": {"type": "Point", "coordinates": [-0.410594588875005, 51.560740896800745]}, "Station ID": "940GZZLURSG", "Zone": "5", "Lines": "Central Line", "Number of Lines": 1}, {"type": "Feature", "Name": "Ruislip Manor", "geometry": {"type": "Point", "coordinates": [-0.412388088869976, 51.57330739680855]}, "Station ID": "940GZZLURSM", "Zone": "6", "Lines": "Metropolitan Line, Piccadilly Line", "Number of Lines": 2}, {"type": "Feature", "Name": "Ruislip", "geometry": {"type": "Point", "coordinates": [-0.421628045003454, 51.57137274760845]}, "Station ID": "940GZZLURSP", "Zone": "6", "Lines": "Metropolitan Line, Piccadilly Line", "Number of Lines": 2}, {"type": "Feature", "Name": "Russell Square", "geometry": {"type": "Point", "coordinates": [-0.124203388783222, 51.523145296771695]}, "Station ID": "940GZZLURSQ", "Zone": "1", "Lines": "Piccadilly Line", "Number of Lines": 1}, {"type": "Feature", "Name": "Ravenscourt Park", "geometry": {"type": "Point", "coordinates": [-0.23579748883859, 51.494116696756386]}, "Station ID": "940GZZLURVP", "Zone": "2", "Lines": "District Line", "Number of Lines": 1}, {"type": "Feature", "Name": "Roding Valley", "geometry": {"type": "Point", "coordinates": [0.043879811322804, 51.61710569682442]}, "Station ID": "940GZZLURVY", "Zone": "4", "Lines": "Central Line", "Number of Lines": 1}, {"type": "Feature", "Name": "Rayners Lane", "geometry": {"type": "Point", "coordinates": [-0.371281388853172, 51.57518819680894]}, "Station ID": "940GZZLURYL", "Zone": "5", "Lines": "Metropolitan Line, Piccadilly Line", "Number of Lines": 2}, {"type": "Feature", "Name": "Royal Oak", "geometry": {"type": "Point", "coordinates": [-0.187989018355539, 51.5190627502923]}, "Station ID": "940GZZLURYO", "Zone": "2", "Lines": "Circle Line, Hammersmith & City Line", "Number of Lines": 2}, {"type": "Feature", "Name": "Shepherd's Bush", "geometry": {"type": "Point", "coordinates": [-0.218, 51.50445]}, "Station ID": "940GZZLUSBC", "Zone": "2", "Lines": "Central Line", "Number of Lines": 1}, {"type": "Feature", "Name": "Shepherd's Bush (Rail)", "geometry": {"type": "Point", "coordinates": [-0.2175, 51.50513]}, "Station ID": "910GSHPDSB", "Zone": "2", "Lines": "Overground", "Number of Lines": 1}, {"type": "Feature", "Name": "Shepherd's Bush Market", "geometry": {"type": "Point", "coordinates": [-0.226383088829636, 51.505796496763324]}, "Station ID": "940GZZLUSBM", "Zone": "2", "Lines": "Circle Line, Hammersmith & City Line", "Number of Lines": 2}, {"type": "Feature", "Name": "South Ealing", "geometry": {"type": "Point", "coordinates": [-0.307100976576217, 51.5010291321829]}, "Station ID": "940GZZLUSEA", "Zone": "3", "Lines": "Piccadilly Line", "Number of Lines": 1}, {"type": "Feature", "Name": "Stamford Brook", "geometry": {"type": "Point", "coordinates": [-0.245834688842007, 51.494938196757055]}, "Station ID": "940GZZLUSFB", "Zone": "2", "Lines": "District Line", "Number of Lines": 1}, {"type": "Feature", "Name": "Southfields", "geometry": {"type": "Point", "coordinates": [-0.206705607801152, 51.44552528896166]}, "Station ID": "940GZZLUSFS", "Zone": "3", "Lines": "District Line", "Number of Lines": 1}, {"type": "Feature", "Name": "Stepney Green", "geometry": {"type": "Point", "coordinates": [-0.046728188755114, 51.52171459676888]}, "Station ID": "940GZZLUSGN", "Zone": "2", "Lines": "District Line, Hammersmith & City Line", "Number of Lines": 2}, {"type": "Feature", "Name": "Stonebridge Park", "geometry": {"type": "Point", "coordinates": [-0.2757003888308, 51.54388119678773]}, "Station ID": "940GZZLUSGP", "Zone": "3", "Lines": "Bakerloo Line, Overground", "Number of Lines": 2}, {"type": "Feature", "Name": "Southgate", "geometry": {"type": "Point", "coordinates": [-0.127810688734001, 51.63233359683876]}, "Station ID": "940GZZLUSGT", "Zone": "4", "Lines": "Piccadilly Line", "Number of Lines": 1}, {"type": "Feature", "Name": "South Harrow", "geometry": {"type": "Point", "coordinates": [-0.352209788850613, 51.56466209680205]}, "Station ID": "940GZZLUSHH", "Zone": "5", "Lines": "Piccadilly Line", "Number of Lines": 1}, {"type": "Feature", "Name": "St. James's Park", "geometry": {"type": "Point", "coordinates": [-0.133535688797638, 51.49961199675753]}, "Station ID": "940GZZLUSJP", "Zone": "1", "Lines": "District Line, Circle Line", "Number of Lines": 2}, {"type": "Feature", "Name": "St. John's Wood", "geometry": {"type": "Point", "coordinates": [-0.174052188796482, 51.53483099678]}, "Station ID": "940GZZLUSJW", "Zone": "2", "Lines": "Jubilee Line", "Number of Lines": 1}, {"type": "Feature", "Name": "South Kensington", "geometry": {"type": "Point", "coordinates": [-0.172900093155076, 51.49403710103854]}, "Station ID": "940GZZLUSKS", "Zone": "1", "Lines": "District Line, Circle Line, Piccadilly Line", "Number of Lines": 3}, {"type": "Feature", "Name": "South Kenton", "geometry": {"type": "Point", "coordinates": [-0.3083997888312, 51.57025409680464]}, "Station ID": "940GZZLUSKT", "Zone": "4", "Lines": "Bakerloo Line, Overground", "Number of Lines": 2}, {"type": "Feature", "Name": "Stockwell", "geometry": {"type": "Point", "coordinates": [-0.122501888806288, 51.47217989674057]}, "Station ID": "940GZZLUSKW", "Zone": "2", "Lines": "Northern Line, Victoria Line", "Number of Lines": 2}, {"type": "Feature", "Name": "Snaresbrook", "geometry": {"type": "Point", "coordinates": [0.021513611297592, 51.5807299968029]}, "Station ID": "940GZZLUSNB", "Zone": "4", "Lines": "Central Line", "Number of Lines": 1}, {"type": "Feature", "Name": "St. Paul's", "geometry": {"type": "Point", "coordinates": [-0.097481965278037, 51.514924829000975]}, "Station ID": "940GZZLUSPU", "Zone": "1", "Lines": "Central Line", "Number of Lines": 1}, {"type": "Feature", "Name": "South Ruislip", "geometry": {"type": "Point", "coordinates": [-0.399288388872306, 51.55703469679823]}, "Station ID": "940GZZLUSRP", "Zone": "5", "Lines": "Central Line", "Number of Lines": 1}, {"type": "Feature", "Name": "Sloane Square", "geometry": {"type": "Point", "coordinates": [-0.1565261888096, 51.49234839675363]}, "Station ID": "940GZZLUSSQ", "Zone": "1", "Lines": "District Line, Circle Line", "Number of Lines": 2}, {"type": "Feature", "Name": "Stratford", "geometry": {"type": "Point", "coordinates": [-0.003884484371211, 51.54149403786308]}, "Station ID": "940GZZLUSTD", "Zone": "2/3", "Lines": "Central Line, Jubilee Line", "Number of Lines": 2}, {"type": "Feature", "Name": "Stanmore", "geometry": {"type": "Point", "coordinates": [-0.30301638880663, 51.61939299683492]}, "Station ID": "940GZZLUSTM", "Zone": "5", "Lines": "Jubilee Line", "Number of Lines": 1}, {"type": "Feature", "Name": "Sudbury Hill", "geometry": {"type": "Point", "coordinates": [-0.336681952450185, 51.55698816549702]}, "Station ID": "940GZZLUSUH", "Zone": "4", "Lines": "Piccadilly Line", "Number of Lines": 1}, {"type": "Feature", "Name": "Sudbury Town", "geometry": {"type": "Point", "coordinates": [-0.315803488842938, 51.55084789679281]}, "Station ID": "940GZZLUSUT", "Zone": "4", "Lines": "Piccadilly Line", "Number of Lines": 1}, {"type": "Feature", "Name": "Seven Sisters", "geometry": {"type": "Point", "coordinates": [-0.07248, 51.5836]}, "Station ID": "940GZZLUSVS", "Zone": "3", "Lines": "Victoria Line", "Number of Lines": 1}, {"type": "Feature", "Name": "Swiss Cottage", "geometry": {"type": "Point", "coordinates": [-0.174663288792777, 51.543335996785196]}, "Station ID": "940GZZLUSWC", "Zone": "2", "Lines": "Jubilee Line", "Number of Lines": 1}, {"type": "Feature", "Name": "South Woodford", "geometry": {"type": "Point", "coordinates": [0.027390811304986, 51.59193159680956]}, "Station ID": "940GZZLUSWF", "Zone": "4", "Lines": "Central Line", "Number of Lines": 1}, {"type": "Feature", "Name": "Southwark", "geometry": {"type": "Point", "coordinates": [-0.105149088784987, 51.50408009675959]}, "Station ID": "940GZZLUSWK", "Zone": "1", "Lines": "Jubilee Line", "Number of Lines": 1}, {"type": "Feature", "Name": "South Wimbledon", "geometry": {"type": "Point", "coordinates": [-0.192138088858698, 51.415328596707454]}, "Station ID": "940GZZLUSWN", "Zone": "3/4", "Lines": "Northern Line", "Number of Lines": 1}, {"type": "Feature", "Name": "Totteridge & Whetstone", "geometry": {"type": "Point", "coordinates": [-0.1791527887543, 51.63036539683885]}, "Station ID": "940GZZLUTAW", "Zone": "4", "Lines": "Northern Line", "Number of Lines": 1}, {"type": "Feature", "Name": "Tooting Bec", "geometry": {"type": "Point", "coordinates": [-0.159650488837145, 51.435598296719135]}, "Station ID": "940GZZLUTBC", "Zone": "3", "Lines": "Northern Line", "Number of Lines": 1}, {"type": "Feature", "Name": "Tooting Broadway", "geometry": {"type": "Point", "coordinates": [-0.168185288843982, 51.42774539671451]}, "Station ID": "940GZZLUTBY", "Zone": "3", "Lines": "Northern Line, Crossrail 2", "Number of Lines": 2}, {"type": "Feature", "Name": "Tottenham Court Road", "geometry": {"type": "Point", "coordinates": [-0.130523703657051, 51.516467467189486]}, "Station ID": "940GZZLUTCR", "Zone": "1", "Lines": "Central Line, Northern Line", "Number of Lines": 2}, {"type": "Feature", "Name": "Tufnell Park", "geometry": {"type": "Point", "coordinates": [-0.138432888772931, 51.556807996792614]}, "Station ID": "940GZZLUTFP", "Zone": "2", "Lines": "Northern Line", "Number of Lines": 1}, {"type": "Feature", "Name": "Theydon Bois", "geometry": {"type": "Point", "coordinates": [0.103210311370094, 51.6717380968558]}, "Station ID": "940GZZLUTHB", "Zone": "6", "Lines": "Central Line", "Number of Lines": 1}, {"type": "Feature", "Name": "Tottenham Hale", "geometry": {"type": "Point", "coordinates": [-0.05987, 51.58843]}, "Station ID": "940GZZLUTMH", "Zone": "3", "Lines": "Victoria Line, Crossrail 2", "Number of Lines": 2}, {"type": "Feature", "Name": "Temple", "geometry": {"type": "Point", "coordinates": [-0.113749988784941, 51.51106179676407]}, "Station ID": "940GZZLUTMP", "Zone": "1", "Lines": "District Line, Circle Line", "Number of Lines": 2}, {"type": "Feature", "Name": "Turnham Green", "geometry": {"type": "Point", "coordinates": [-0.254530088845205, 51.49514349675738]}, "Station ID": "940GZZLUTNG", "Zone": "2/3", "Lines": "District Line, Piccadilly Line", "Number of Lines": 2}, {"type": "Feature", "Name": "Turnpike Lane", "geometry": {"type": "Point", "coordinates": [-0.10284648874406, 51.59034819681229]}, "Station ID": "940GZZLUTPN", "Zone": "3", "Lines": "Piccadilly Line", "Number of Lines": 1}, {"type": "Feature", "Name": "Tower Hill", "geometry": {"type": "Point", "coordinates": [-0.077750188772145, 51.50980999676242]}, "Station ID": "940GZZLUTWH", "Zone": "1", "Lines": "District Line, Circle Line", "Number of Lines": 2}, {"type": "Feature", "Name": "Upminster Bridge", "geometry": {"type": "Point", "coordinates": [0.234693811364312, 51.558334196781665]}, "Station ID": "940GZZLUUPB", "Zone": "6", "Lines": "District Line", "Number of Lines": 1}, {"type": "Feature", "Name": "Upton Park", "geometry": {"type": "Point", "coordinates": [0.034414111281041, 51.5352241967748]}, "Station ID": "940GZZLUUPK", "Zone": "3", "Lines": "District Line, Hammersmith & City Line", "Number of Lines": 2}, {"type": "Feature", "Name": "Upminster", "geometry": {"type": "Point", "coordinates": [0.253023811371168, 51.55901329678132]}, "Station ID": "940GZZLUUPM", "Zone": "6", "Lines": "District Line", "Number of Lines": 1}, {"type": "Feature", "Name": "Upminster (Rail)", "geometry": {"type": "Point", "coordinates": [0.253, 51.5595]}, "Station ID": "910GUPMNSTR", "Zone": "6", "Lines": "Overground", "Number of Lines": 1}, {"type": "Feature", "Name": "Upney", "geometry": {"type": "Point", "coordinates": [0.099727711306271, 51.53826659677458]}, "Station ID": "940GZZLUUPY", "Zone": "4", "Lines": "District Line", "Number of Lines": 1}, {"type": "Feature", "Name": "Uxbridge", "geometry": {"type": "Point", "coordinates": [-0.478411288907967, 51.546434196793065]}, "Station ID": "940GZZLUUXB", "Zone": "6", "Lines": "Metropolitan Line, Piccadilly Line", "Number of Lines": 2}, {"type": "Feature", "Name": "Victoria", "geometry": {"type": "Point", "coordinates": [-0.143229488802768, 51.49635849675576]}, "Station ID": "940GZZLUVIC", "Zone": "1", "Lines": "District Line, Circle Line, Victoria Line, Crossrail 2", "Number of Lines": 4}, {"type": "Feature", "Name": "Vauxhall", "geometry": {"type": "Point", "coordinates": [-0.12307958880055, 51.484971696748396]}, "Station ID": "940GZZLUVXL", "Zone": "1/2", "Lines": "Victoria Line", "Number of Lines": 1}, {"type": "Feature", "Name": "Watford", "geometry": {"type": "Point", "coordinates": [-0.417372688833715, 51.657372196860905]}, "Station ID": "940GZZLUWAF", "Zone": "7", "Lines": "Metropolitan Line", "Number of Lines": 1}, {"type": "Feature", "Name": "West Brompton", "geometry": {"type": "Point", "coordinates": [-0.195487737439094, 51.48702994650718]}, "Station ID": "940GZZLUWBN", "Zone": "2", "Lines": "District Line, Overground", "Number of Lines": 2}, {"type": "Feature", "Name": "White City", "geometry": {"type": "Point", "coordinates": [-0.22438578882598, 51.51207189676714]}, "Station ID": "940GZZLUWCY", "Zone": "2", "Lines": "Central Line", "Number of Lines": 1}, {"type": "Feature", "Name": "West Finchley", "geometry": {"type": "Point", "coordinates": [-0.188301288767383, 51.6094883968262]}, "Station ID": "940GZZLUWFN", "Zone": "4", "Lines": "Northern Line", "Number of Lines": 1}, {"type": "Feature", "Name": "West Ham", "geometry": {"type": "Point", "coordinates": [0.0044, 51.52834]}, "Station ID": "940GZZLUWHM", "Zone": "2/3", "Lines": "District Line, Hammersmith & City Line, Jubilee Line", "Number of Lines": 3}, {"type": "Feature", "Name": "West Hampstead", "geometry": {"type": "Point", "coordinates": [-0.190799988797229, 51.54685659678774]}, "Station ID": "940GZZLUWHP", "Zone": "2", "Lines": "Jubilee Line", "Number of Lines": 1}, {"type": "Feature", "Name": "West Harrow", "geometry": {"type": "Point", "coordinates": [-0.353765188844481, 51.5793907968112]}, "Station ID": "940GZZLUWHW", "Zone": "5", "Lines": "Metropolitan Line", "Number of Lines": 1}, {"type": "Feature", "Name": "Willesden Green", "geometry": {"type": "Point", "coordinates": [-0.221854888807828, 51.549329396789936]}, "Station ID": "940GZZLUWIG", "Zone": "2/3", "Lines": "Jubilee Line", "Number of Lines": 1}, {"type": "Feature", "Name": "Wimbledon", "geometry": {"type": "Point", "coordinates": [-0.206164202902544, 51.4216358831057]}, "Station ID": "940GZZLUWIM", "Zone": "3", "Lines": "District Line, Crossrail 2", "Number of Lines": 2}, {"type": "Feature", "Name": "Wimbledon Park", "geometry": {"type": "Point", "coordinates": [-0.199631988852613, 51.43445889671925]}, "Station ID": "940GZZLUWIP", "Zone": "3", "Lines": "District Line", "Number of Lines": 1}, {"type": "Feature", "Name": "Willesden Junction", "geometry": {"type": "Point", "coordinates": [-0.243179588823788, 51.5322486967799]}, "Station ID": "940GZZLUWJN", "Zone": "2/3", "Lines": "Bakerloo Line, Overground", "Number of Lines": 2}, {"type": "Feature", "Name": "Warwick Avenue", "geometry": {"type": "Point", "coordinates": [-0.184009788805566, 51.52330039677313]}, "Station ID": "940GZZLUWKA", "Zone": "2", "Lines": "Bakerloo Line", "Number of Lines": 1}, {"type": "Feature", "Name": "West Kensington", "geometry": {"type": "Point", "coordinates": [-0.205979842198908, 51.49069666178459]}, "Station ID": "940GZZLUWKN", "Zone": "2", "Lines": "District Line", "Number of Lines": 1}, {"type": "Feature", "Name": "Wood Lane", "geometry": {"type": "Point", "coordinates": [-0.22371168882665, 51.510073896765896]}, "Station ID": "940GZZLUWLA", "Zone": "2", "Lines": "Circle Line, Hammersmith & City Line", "Number of Lines": 2}, {"type": "Feature", "Name": "Waterloo", "geometry": {"type": "Point", "coordinates": [-0.114356675883582, 51.50305709091854]}, "Station ID": "940GZZLUWLO", "Zone": "1", "Lines": "Bakerloo Line, Jubilee Line, Northern Line, Waterloo & City Line", "Number of Lines": 4}, {"type": "Feature", "Name": "Woodford", "geometry": {"type": "Point", "coordinates": [0.033859511314242, 51.60665479681835]}, "Station ID": "940GZZLUWOF", "Zone": "4", "Lines": "Central Line", "Number of Lines": 1}, {"type": "Feature", "Name": "Wood Green", "geometry": {"type": "Point", "coordinates": [-0.10975528874337, 51.59741889681681]}, "Station ID": "940GZZLUWOG", "Zone": "3", "Lines": "Piccadilly Line, Crossrail 2", "Number of Lines": 2}, {"type": "Feature", "Name": "Woodside Park", "geometry": {"type": "Point", "coordinates": [-0.185619988762541, 51.617793296831245]}, "Station ID": "940GZZLUWOP", "Zone": "4", "Lines": "Northern Line", "Number of Lines": 1}, {"type": "Feature", "Name": "Whitechapel", "geometry": {"type": "Point", "coordinates": [-0.061, 51.5196]}, "Station ID": "940GZZLUWPL", "Zone": "2", "Lines": "District Line, Hammersmith & City Line", "Number of Lines": 2}, {"type": "Feature", "Name": "West Ruislip", "geometry": {"type": "Point", "coordinates": [-0.437661788881495, 51.56963189680672]}, "Station ID": "940GZZLUWRP", "Zone": "6", "Lines": "Central Line", "Number of Lines": 1}, {"type": "Feature", "Name": "Warren Street", "geometry": {"type": "Point", "coordinates": [-0.138099509950274, 51.524653488852564]}, "Station ID": "940GZZLUWRR", "Zone": "1", "Lines": "Northern Line, Victoria Line", "Number of Lines": 2}, {"type": "Feature", "Name": "Wanstead", "geometry": {"type": "Point", "coordinates": [0.02862101129784, 51.575665896799606]}, "Station ID": "940GZZLUWSD", "Zone": "4", "Lines": "Central Line", "Number of Lines": 1}, {"type": "Feature", "Name": "Westminster", "geometry": {"type": "Point", "coordinates": [-0.125956372719967, 51.50087752524877]}, "Station ID": "940GZZLUWSM", "Zone": "1", "Lines": "District Line, Circle Line, Jubilee Line", "Number of Lines": 3}, {"type": "Feature", "Name": "Westbourne Park", "geometry": {"type": "Point", "coordinates": [-0.201508488813243, 51.52094869677208]}, "Station ID": "940GZZLUWSP", "Zone": "2", "Lines": "Circle Line, Hammersmith & City Line", "Number of Lines": 2}, {"type": "Feature", "Name": "West Acton", "geometry": {"type": "Point", "coordinates": [-0.280605088844486, 51.51819639677204]}, "Station ID": "940GZZLUWTA", "Zone": "3", "Lines": "Central Line", "Number of Lines": 1}, {"type": "Feature", "Name": "Walthamstow Central", "geometry": {"type": "Point", "coordinates": [-0.0201, 51.5839]}, "Station ID": "940GZZLUWWL", "Zone": "3", "Lines": "Victoria Line", "Number of Lines": 1}, {"type": "Feature", "Name": "Wembley Central", "geometry": {"type": "Point", "coordinates": [-0.295882588835057, 51.551395096792774]}, "Station ID": "940GZZLUWYC", "Zone": "4", "Lines": "Bakerloo Line, Overground", "Number of Lines": 2}, {"type": "Feature", "Name": "Wembley Park", "geometry": {"type": "Point", "coordinates": [-0.280039988823317, 51.56376829680006]}, "Station ID": "940GZZLUWYP", "Zone": "4", "Lines": "Jubilee Line, Metropolitan Line", "Number of Lines": 2}, {"type": "Feature", "Name": "Cassiobridge", "geometry": {"type": "Point", "coordinates": [-0.424368370339758, 51.65062642509474]}, "Station ID": "940GZZLU960", "Zone": "M", "Lines": "Metropolitan Line", "Number of Lines": 1}, {"type": "Feature", "Name": "Watford Vicarage Road", "geometry": {"type": "Point", "coordinates": [-0.408661354344142, 51.646791968757654]}, "Station ID": "940GZZLU961", "Zone": "M", "Lines": "Metropolitan Line", "Number of Lines": 1}, {"type": "Feature", "Name": "Nine Elms", "geometry": {"type": "Point", "coordinates": [-0.128617275486981, 51.48015346456321]}, "Station ID": "940GZZLU990", "Zone": "2", "Lines": "Northern Line", "Number of Lines": 1}, {"type": "Feature", "Name": "Battersea Power Station", "geometry": {"type": "Point", "coordinates": [-0.142993915812499, 51.47943182817867]}, "Station ID": "940GZZLU991", "Zone": "2", "Lines": "Northern Line", "Number of Lines": 1}, {"type": "Feature", "Name": "Abbey Road", "geometry": {"type": "Point", "coordinates": [0.003530311268391, 51.53239359677397]}, "Station ID": "940GZZDLABR", "Zone": "2/3", "Lines": "Docklands Light Railway", "Number of Lines": 1}, {"type": "Feature", "Name": "All Saints", "geometry": {"type": "Point", "coordinates": [-0.013071288747848, 51.51071599676127]}, "Station ID": "940GZZDLALL", "Zone": "2", "Lines": "Docklands Light Railway", "Number of Lines": 1}, {"type": "Feature", "Name": "Beckton", "geometry": {"type": "Point", "coordinates": [0.061052711280941, 51.51427849676127]}, "Station ID": "940GZZDLBEC", "Zone": "3", "Lines": "Docklands Light Railway", "Number of Lines": 1}, {"type": "Feature", "Name": "Blackwall", "geometry": {"type": "Point", "coordinates": [-0.007226188746996, 51.507944996759434]}, "Station ID": "940GZZDLBLA", "Zone": "2", "Lines": "Docklands Light Railway", "Number of Lines": 1}, {"type": "Feature", "Name": "Bank (DLR)", "geometry": {"type": "Point", "coordinates": [-0.087, 51.5123]}, "Station ID": "940GZZDLBNK", "Zone": "1", "Lines": "Docklands Light Railway", "Number of Lines": 1}, {"type": "Feature", "Name": "Bow Church", "geometry": {"type": "Point", "coordinates": [-0.020910788742779, 51.52772929677183]}, "Station ID": "940GZZDLBOW", "Zone": "2", "Lines": "Docklands Light Railway", "Number of Lines": 1}, {"type": "Feature", "Name": "Beckton Park", "geometry": {"type": "Point", "coordinates": [0.054975711276119, 51.50872579675808]}, "Station ID": "940GZZDLBPK", "Zone": "3", "Lines": "Docklands Light Railway", "Number of Lines": 1}, {"type": "Feature", "Name": "Canary Wharf", "geometry": {"type": "Point", "coordinates": [-0.020897328555329, 51.505171856405184]}, "Station ID": "940GZZDLCAN", "Zone": "2", "Lines": "Docklands Light Railway", "Number of Lines": 1}, {"type": "Feature", "Name": "Canning Town (DLR)", "geometry": {"type": "Point", "coordinates": [0.008, 51.5135]}, "Station ID": "940GZZDLCGT", "Zone": "2/3", "Lines": "Docklands Light Railway", "Number of Lines": 1}, {"type": "Feature", "Name": "Crossharbour", "geometry": {"type": "Point", "coordinates": [-0.014468088755321, 51.49583639675227]}, "Station ID": "940GZZDLCLA", "Zone": "2", "Lines": "Docklands Light Railway", "Number of Lines": 1}, {"type": "Feature", "Name": "Custom House", "geometry": {"type": "Point", "coordinates": [0.02637, 51.5097]}, "Station ID": "940GZZDLCUS", "Zone": "3", "Lines": "Docklands Light Railway", "Number of Lines": 1}, {"type": "Feature", "Name": "Cutty Sark", "geometry": {"type": "Point", "coordinates": [-0.010720788760546, 51.48174139674361]}, "Station ID": "940GZZDLCUT", "Zone": "2/3", "Lines": "Docklands Light Railway", "Number of Lines": 1}, {"type": "Feature", "Name": "Cyprus", "geometry": {"type": "Point", "coordinates": [0.063971211279256, 51.508432396757634]}, "Station ID": "940GZZDLCYP", "Zone": "3", "Lines": "Docklands Light Railway", "Number of Lines": 1}, {"type": "Feature", "Name": "Deptford Bridge", "geometry": {"type": "Point", "coordinates": [-0.022393988768403, 51.4741099967393]}, "Station ID": "940GZZDLDEP", "Zone": "2/3", "Lines": "Docklands Light Railway", "Number of Lines": 1}, {"type": "Feature", "Name": "Devons Road", "geometry": {"type": "Point", "coordinates": [-0.01750108874398, 51.52247469676852]}, "Station ID": "940GZZDLDEV", "Zone": "2", "Lines": "Docklands Light Railway", "Number of Lines": 1}, {"type": "Feature", "Name": "East India", "geometry": {"type": "Point", "coordinates": [-0.002258988744497, 51.50938559676015]}, "Station ID": "940GZZDLEIN", "Zone": "2/3", "Lines": "Docklands Light Railway", "Number of Lines": 1}, {"type": "Feature", "Name": "Elverson Road", "geometry": {"type": "Point", "coordinates": [-0.016786388768695, 51.4690956967361]}, "Station ID": "940GZZDLELV", "Zone": "2/3", "Lines": "Docklands Light Railway", "Number of Lines": 1}, {"type": "Feature", "Name": "Gallions Reach", "geometry": {"type": "Point", "coordinates": [0.071771211282341, 51.50896429675772]}, "Station ID": "940GZZDLGAL", "Zone": "3", "Lines": "Docklands Light Railway", "Number of Lines": 1}, {"type": "Feature", "Name": "Greenwich", "geometry": {"type": "Point", "coordinates": [-0.015487288764028, 51.4780421967415]}, "Station ID": "940GZZDLGRE", "Zone": "2/3", "Lines": "Docklands Light Railway", "Number of Lines": 1}, {"type": "Feature", "Name": "Heron Quays", "geometry": {"type": "Point", "coordinates": [-0.021437188754409, 51.503261596756964]}, "Station ID": "940GZZDLHEQ", "Zone": "2", "Lines": "Docklands Light Railway", "Number of Lines": 1}, {"type": "Feature", "Name": "Island Gardens", "geometry": {"type": "Point", "coordinates": [-0.010293788757498, 51.48791609674734]}, "Station ID": "940GZZDLISL", "Zone": "2", "Lines": "Docklands Light Railway", "Number of Lines": 1}, {"type": "Feature", "Name": "King George V", "geometry": {"type": "Point", "coordinates": [0.062157952706417, 51.50195162689735]}, "Station ID": "940GZZDLKGV", "Zone": "3", "Lines": "Docklands Light Railway", "Number of Lines": 1}, {"type": "Feature", "Name": "London City Airport", "geometry": {"type": "Point", "coordinates": [0.04801181127121, 51.503675596755244]}, "Station ID": "940GZZDLLCA", "Zone": "3", "Lines": "Docklands Light Railway", "Number of Lines": 1}, {"type": "Feature", "Name": "Langdon Park", "geometry": {"type": "Point", "coordinates": [-0.014112888746161, 51.51513999676399]}, "Station ID": "940GZZDLLDP", "Zone": "2", "Lines": "Docklands Light Railway", "Number of Lines": 1}, {"type": "Feature", "Name": "Lewisham", "geometry": {"type": "Point", "coordinates": [-0.012909888769327, 51.464714096733346]}, "Station ID": "940GZZDLLEW", "Zone": "2/3", "Lines": "Docklands Light Railway", "Number of Lines": 1}, {"type": "Feature", "Name": "Limehouse", "geometry": {"type": "Point", "coordinates": [-0.039687188756875, 51.512372196762975]}, "Station ID": "940GZZDLLIM", "Zone": "2", "Lines": "Docklands Light Railway", "Number of Lines": 1}, {"type": "Feature", "Name": "Mudchute", "geometry": {"type": "Point", "coordinates": [-0.014953588757438, 51.49169769674977]}, "Station ID": "940GZZDLMUD", "Zone": "2", "Lines": "Docklands Light Railway", "Number of Lines": 1}, {"type": "Feature", "Name": "Pontoon Dock", "geometry": {"type": "Point", "coordinates": [0.03270381126494, 51.5022143967548]}, "Station ID": "940GZZDLPDK", "Zone": "3", "Lines": "Docklands Light Railway", "Number of Lines": 1}, {"type": "Feature", "Name": "Poplar", "geometry": {"type": "Point", "coordinates": [-0.017477988750811, 51.50783969675963]}, "Station ID": "940GZZDLPOP", "Zone": "2", "Lines": "Docklands Light Railway", "Number of Lines": 1}, {"type": "Feature", "Name": "Prince Regent", "geometry": {"type": "Point", "coordinates": [0.033622611268687, 51.509486596759196]}, "Station ID": "940GZZDLPRE", "Zone": "3", "Lines": "Docklands Light Railway", "Number of Lines": 1}, {"type": "Feature", "Name": "Pudding Mill Lane", "geometry": {"type": "Point", "coordinates": [-0.013515247304248, 51.533844325066234]}, "Station ID": "940GZZDLPUD", "Zone": "2/3", "Lines": "Docklands Light Railway", "Number of Lines": 1}, {"type": "Feature", "Name": "Royal Albert", "geometry": {"type": "Point", "coordinates": [0.045657511272545, 51.508343896758134]}, "Station ID": "940GZZDLRAL", "Zone": "3", "Lines": "Docklands Light Railway", "Number of Lines": 1}, {"type": "Feature", "Name": "Royal Victoria", "geometry": {"type": "Point", "coordinates": [0.017929848695488, 51.50916837427994]}, "Station ID": "940GZZDLRVC", "Zone": "3", "Lines": "Docklands Light Railway", "Number of Lines": 1}, {"type": "Feature", "Name": "Shadwell", "geometry": {"type": "Point", "coordinates": [-0.0562, 51.51175]}, "Station ID": "940GZZDLSHA", "Zone": "2", "Lines": "Docklands Light Railway", "Number of Lines": 1}, {"type": "Feature", "Name": "Stratford High Street", "geometry": {"type": "Point", "coordinates": [-0.000337888730548, 51.537698696777326]}, "Station ID": "940GZZDLSHS", "Zone": "2/3", "Lines": "Docklands Light Railway", "Number of Lines": 1}, {"type": "Feature", "Name": "Stratford International", "geometry": {"type": "Point", "coordinates": [-0.008861088729918, 51.545762996782464]}, "Station ID": "940GZZDLSIT", "Zone": "2/3", "Lines": "Docklands Light Railway", "Number of Lines": 1}, {"type": "Feature", "Name": "South Quay", "geometry": {"type": "Point", "coordinates": [-0.016193388754003, 51.50001019675486]}, "Station ID": "940GZZDLSOQ", "Zone": "2", "Lines": "Docklands Light Railway", "Number of Lines": 1}, {"type": "Feature", "Name": "Stratford (DLR 1)", "geometry": {"type": "Point", "coordinates": [-0.004857308924332, 51.54032861204653]}, "Station ID": "940GZZDLSTD", "Zone": "2/3", "Lines": "Docklands Light Railway", "Number of Lines": 1}, {"type": "Feature", "Name": "Star Lane", "geometry": {"type": "Point", "coordinates": [0.004174911263093, 51.52055939676674]}, "Station ID": "940GZZDLSTL", "Zone": "2/3", "Lines": "Docklands Light Railway", "Number of Lines": 1}, {"type": "Feature", "Name": "Tower Gateway", "geometry": {"type": "Point", "coordinates": [-0.07441368877053, 51.510623296762816]}, "Station ID": "940GZZDLTWG", "Zone": "1", "Lines": "Docklands Light Railway", "Number of Lines": 1}, {"type": "Feature", "Name": "Westferry", "geometry": {"type": "Point", "coordinates": [-0.026735688753466, 51.50945149676087]}, "Station ID": "940GZZDLWFE", "Zone": "2", "Lines": "Docklands Light Railway", "Number of Lines": 1}, {"type": "Feature", "Name": "West Ham (DLR)", "geometry": {"type": "Point", "coordinates": [0.005, 51.528]}, "Station ID": "940GZZDLWHM", "Zone": "2/3", "Lines": "Docklands Light Railway", "Number of Lines": 1}, {"type": "Feature", "Name": "West India Quay", "geometry": {"type": "Point", "coordinates": [-0.020404088752326, 51.50690409675916]}, "Station ID": "940GZZDLWIQ", "Zone": "2", "Lines": "Docklands Light Railway", "Number of Lines": 1}, {"type": "Feature", "Name": "Woolwich Arsenal", "geometry": {"type": "Point", "coordinates": [0.069384611272697, 51.490297196746496]}, "Station ID": "940GZZDLWLA", "Zone": "4", "Lines": "Docklands Light Railway", "Number of Lines": 1}, {"type": "Feature", "Name": "West Silvertown", "geometry": {"type": "Point", "coordinates": [0.02212531126141, 51.50292869675556]}, "Station ID": "940GZZDLWSV", "Zone": "3", "Lines": "Docklands Light Railway", "Number of Lines": 1}, {"type": "Feature", "Name": "Abbey Wood", "geometry": {"type": "Point", "coordinates": [0.120405436239865, 51.49109337925192]}, "Station ID": "910GABWD", "Zone": "4", "Lines": "Crossrail", "Number of Lines": 1}, {"type": "Feature", "Name": "Acton Central", "geometry": {"type": "Point", "coordinates": [-0.262832588842098, 51.50870909676585]}, "Station ID": "910GACTNCTL", "Zone": "3", "Lines": "Overground", "Number of Lines": 1}, {"type": "Feature", "Name": "Acton Main Line", "geometry": {"type": "Point", "coordinates": [-0.267155188839869, 51.51710769677108]}, "Station ID": "910GACTONML", "Zone": "3", "Lines": "Crossrail", "Number of Lines": 1}, {"type": "Feature", "Name": "Anerley", "geometry": {"type": "Point", "coordinates": [-0.06579798881331, 51.41226409670292]}, "Station ID": "910GANERLEY", "Zone": "4", "Lines": "Overground", "Number of Lines": 1}, {"type": "Feature", "Name": "Angel Road", "geometry": {"type": "Point", "coordinates": [-0.04906, 51.61267]}, "Station ID": "910GANGELRD", "Zone": "4", "Lines": "Crossrail 2", "Number of Lines": 1}, {"type": "Feature", "Name": "Barking (Rail)", "geometry": {"type": "Point", "coordinates": [0.0809, 51.5392]}, "Station ID": "910GBARKING", "Zone": "4", "Lines": "Overground", "Number of Lines": 1}, {"type": "Feature", "Name": "Battersea Park", "geometry": {"type": "Point", "coordinates": [-0.147444088812855, 51.478039996744684]}, "Station ID": "910GBATRSPK", "Zone": "2", "Lines": "Overground", "Number of Lines": 1}, {"type": "Feature", "Name": "Bush Hill Park", "geometry": {"type": "Point", "coordinates": [-0.069034388707848, 51.64120569684262]}, "Station ID": "910GBHILLPK", "Zone": "5", "Lines": "Overground", "Number of Lines": 1}, {"type": "Feature", "Name": "Blackhorse Road (Rail)", "geometry": {"type": "Point", "coordinates": [-0.041339070661268, 51.58663564266132]}, "Station ID": "910GBLCHSRD", "Zone": "3", "Lines": "Overground", "Number of Lines": 1}, {"type": "Feature", "Name": "Burnham", "geometry": {"type": "Point", "coordinates": [-0.64635268898481, 51.52339969678144]}, "Station ID": "910GBNHAM", "Zone": "X", "Lines": "Crossrail", "Number of Lines": 1}, {"type": "Feature", "Name": "Bond Street (Rail)", "geometry": {"type": "Point", "coordinates": [-0.148, 51.5134]}, "Station ID": "910GBONDST", "Zone": "1", "Lines": "Crossrail", "Number of Lines": 1}, {"type": "Feature", "Name": "Brondesbury", "geometry": {"type": "Point", "coordinates": [-0.202323488802381, 51.545122796786934]}, "Station ID": "910GBRBY", "Zone": "2", "Lines": "Overground", "Number of Lines": 1}, {"type": "Feature", "Name": "Brondesbury Park", "geometry": {"type": "Point", "coordinates": [-0.21014798880738, 51.54069629678439]}, "Station ID": "910GBRBYPK", "Zone": "2", "Lines": "Overground", "Number of Lines": 1}, {"type": "Feature", "Name": "Brimsdown", "geometry": {"type": "Point", "coordinates": [-0.03086, 51.65556]}, "Station ID": "910GBRIMSDN", "Zone": "5", "Lines": "Crossrail 2", "Number of Lines": 1}, {"type": "Feature", "Name": "Berrylands", "geometry": {"type": "Point", "coordinates": [-0.28093, 51.399]}, "Station ID": "910GBRLANDS", "Zone": "5", "Lines": "Crossrail 2", "Number of Lines": 1}, {"type": "Feature", "Name": "Brockley", "geometry": {"type": "Point", "coordinates": [-0.037468788778374, 51.464638196733944]}, "Station ID": "910GBROCKLY", "Zone": "2", "Lines": "Overground", "Number of Lines": 1}, {"type": "Feature", "Name": "Broxbourne", "geometry": {"type": "Point", "coordinates": [-0.010750977068147, 51.74689624377911]}, "Station ID": "910GBROXBRN", "Zone": "11", "Lines": "Crossrail 2", "Number of Lines": 1}, {"type": "Feature", "Name": "Brentwood", "geometry": {"type": "Point", "coordinates": [0.299833811413642, 51.61353539681216]}, "Station ID": "910GBRTWOOD", "Zone": "9", "Lines": "Crossrail", "Number of Lines": 1}, {"type": "Feature", "Name": "Bruce Grove", "geometry": {"type": "Point", "coordinates": [-0.070081088730269, 51.59371069681349]}, "Station ID": "910GBRUCGRV", "Zone": "3", "Lines": "Overground", "Number of Lines": 1}, {"type": "Feature", "Name": "Bethnal Green", "geometry": {"type": "Point", "coordinates": [-0.059428988758786, 51.52391029677053]}, "Station ID": "910GBTHNLGR", "Zone": "2", "Lines": "Overground", "Number of Lines": 1}, {"type": "Feature", "Name": "Bushey", "geometry": {"type": "Point", "coordinates": [-0.385197388826427, 51.64574929685299]}, "Station ID": "910GBUSHEY", "Zone": "8", "Lines": "Overground", "Number of Lines": 1}, {"type": "Feature", "Name": "Cambridge Heath", "geometry": {"type": "Point", "coordinates": [-0.057592688754134, 51.532434796775696]}, "Station ID": "910GCAMHTH", "Zone": "2", "Lines": "Overground", "Number of Lines": 1}, {"type": "Feature", "Name": "Canada Water (Rail)", "geometry": {"type": "Point", "coordinates": [-0.04995, 51.4975]}, "Station ID": "910GCNDAW", "Zone": "2", "Lines": "Overground", "Number of Lines": 1}, {"type": "Feature", "Name": "Chadwell Heath", "geometry": {"type": "Point", "coordinates": [0.129059911330856, 51.56793909679156]}, "Station ID": "910GCHDWLHT", "Zone": "5", "Lines": "Crossrail", "Number of Lines": 1}, {"type": "Feature", "Name": "Cheshunt", "geometry": {"type": "Point", "coordinates": [-0.023974688662454, 51.70287049687923]}, "Station ID": "910GCHESHNT", "Zone": "8", "Lines": "Overground, Crossrail 2", "Number of Lines": 2}, {"type": "Feature", "Name": "Chingford", "geometry": {"type": "Point", "coordinates": [0.010078511317856, 51.63322209683535]}, "Station ID": "910GCHINGFD", "Zone": "5", "Lines": "Overground", "Number of Lines": 1}, {"type": "Feature", "Name": "Chessington North", "geometry": {"type": "Point", "coordinates": [-0.30067, 51.36396]}, "Station ID": "910GCHSSN", "Zone": "6", "Lines": "Crossrail 2", "Number of Lines": 1}, {"type": "Feature", "Name": "Chessington South", "geometry": {"type": "Point", "coordinates": [-0.308259538149212, 51.35672661742655]}, "Station ID": "910GCHSSS", "Zone": "6", "Lines": "Crossrail 2", "Number of Lines": 1}, {"type": "Feature", "Name": "Clapton", "geometry": {"type": "Point", "coordinates": [-0.056832088740239, 51.561662996793515]}, "Station ID": "910GCLAPTON", "Zone": "2/3", "Lines": "Overground", "Number of Lines": 1}, {"type": "Feature", "Name": "Caledonian Road & Barnsbury", "geometry": {"type": "Point", "coordinates": [-0.114988188770282, 51.54360709678396]}, "Station ID": "910GCLDNNRB", "Zone": "2", "Lines": "Overground", "Number of Lines": 1}, {"type": "Feature", "Name": "Clapham High Street", "geometry": {"type": "Point", "coordinates": [-0.132391930431763, 51.46550780571503]}, "Station ID": "910GCLPHHS", "Zone": "2", "Lines": "Overground", "Number of Lines": 1}, {"type": "Feature", "Name": "Clapham Junction", "geometry": {"type": "Point", "coordinates": [-0.171967388828167, 51.46480029673714]}, "Station ID": "910GCLPHMJ1", "Zone": "2", "Lines": "Overground, Crossrail 2", "Number of Lines": 2}, {"type": "Feature", "Name": "Camden Road", "geometry": {"type": "Point", "coordinates": [-0.139464288780204, 51.54194919678354]}, "Station ID": "910GCMDNRD", "Zone": "2", "Lines": "Overground", "Number of Lines": 1}, {"type": "Feature", "Name": "Canonbury", "geometry": {"type": "Point", "coordinates": [-0.092683288759605, 51.54867999678651]}, "Station ID": "910GCNNB", "Zone": "2", "Lines": "Overground", "Number of Lines": 1}, {"type": "Feature", "Name": "Crouch Hill", "geometry": {"type": "Point", "coordinates": [-0.11719538875827, 51.57127849680097]}, "Station ID": "910GCROUCHH", "Zone": "3", "Lines": "Overground", "Number of Lines": 1}, {"type": "Feature", "Name": "Carpenders Park", "geometry": {"type": "Point", "coordinates": [-0.3856743888345, 51.62840699684222]}, "Station ID": "910GCRPNDPK", "Zone": "7", "Lines": "Overground", "Number of Lines": 1}, {"type": "Feature", "Name": "Crystal Palace", "geometry": {"type": "Point", "coordinates": [-0.072204588813006, 51.417944996706495]}, "Station ID": "910GCRYSTLP", "Zone": "3/4", "Lines": "Overground", "Number of Lines": 1}, {"type": "Feature", "Name": "Imperial Wharf", "geometry": {"type": "Point", "coordinates": [-0.183135288827482, 51.475287196743786]}, "Station ID": "910GCSEAH", "Zone": "2", "Lines": "Overground", "Number of Lines": 1}, {"type": "Feature", "Name": "Custom House (Crossrail)", "geometry": {"type": "Point", "coordinates": [0.0267, 51.5099]}, "Station ID": "910GCUSTMHS", "Zone": "3", "Lines": "Crossrail", "Number of Lines": 1}, {"type": "Feature", "Name": "Dalston Junction", "geometry": {"type": "Point", "coordinates": [-0.074907788754177, 51.5461353967845]}, "Station ID": "910GDALS", "Zone": "2", "Lines": "Overground, Crossrail 2", "Number of Lines": 2}, {"type": "Feature", "Name": "Dalston Kingsland", "geometry": {"type": "Point", "coordinates": [-0.075823488753569, 51.548172796785764]}, "Station ID": "910GDALSKLD", "Zone": "2", "Lines": "Overground", "Number of Lines": 1}, {"type": "Feature", "Name": "Denmark Hill", "geometry": {"type": "Point", "coordinates": [-0.089005688795736, 51.46816069673735]}, "Station ID": "910GDENMRKH", "Zone": "2", "Lines": "Overground", "Number of Lines": 1}, {"type": "Feature", "Name": "Ealing Broadway (Rail)", "geometry": {"type": "Point", "coordinates": [-0.30154338885404, 51.51478499677034]}, "Station ID": "910GEALINGB", "Zone": "3", "Lines": "Crossrail", "Number of Lines": 1}, {"type": "Feature", "Name": "Edmonton Green", "geometry": {"type": "Point", "coordinates": [-0.061243388712466, 51.62497219683241]}, "Station ID": "910GEDMNGRN", "Zone": "4", "Lines": "Overground", "Number of Lines": 1}, {"type": "Feature", "Name": "Emerson Park", "geometry": {"type": "Point", "coordinates": [0.220266911364005, 51.568586996788476]}, "Station ID": "910GEMRSPKH", "Zone": "6", "Lines": "Overground", "Number of Lines": 1}, {"type": "Feature", "Name": "Enfield Lock", "geometry": {"type": "Point", "coordinates": [-0.0286, 51.67088]}, "Station ID": "910GENFLDLK", "Zone": "6", "Lines": "Crossrail 2", "Number of Lines": 1}, {"type": "Feature", "Name": "Enfield Town", "geometry": {"type": "Point", "coordinates": [-0.079386088706738, 51.6519705968495]}, "Station ID": "910GENFLDTN", "Zone": "5", "Lines": "Overground", "Number of Lines": 1}, {"type": "Feature", "Name": "Epsom", "geometry": {"type": "Point", "coordinates": [-0.268513190088267, 51.33461449339064]}, "Station ID": "910GEPSM", "Zone": "X", "Lines": "Crossrail 2", "Number of Lines": 1}, {"type": "Feature", "Name": "Euston (Rail)", "geometry": {"type": "Point", "coordinates": [-0.1348, 51.529]}, "Station ID": "910GEUSTON", "Zone": "1", "Lines": "Overground, Crossrail 2", "Number of Lines": 2}, {"type": "Feature", "Name": "Ewell West", "geometry": {"type": "Point", "coordinates": [-0.25707, 51.35023]}, "Station ID": "910GEWELW", "Zone": "6", "Lines": "Crossrail 2", "Number of Lines": 1}, {"type": "Feature", "Name": "Finchley Road & Frognal", "geometry": {"type": "Point", "coordinates": [-0.1839536887932, 51.54998999678951]}, "Station ID": "910GFNCHLYR", "Zone": "2", "Lines": "Overground", "Number of Lines": 1}, {"type": "Feature", "Name": "Farringdon (Rail)", "geometry": {"type": "Point", "coordinates": [-0.1033, 51.5192]}, "Station ID": "910GFNTLSR", "Zone": "1", "Lines": "Crossrail", "Number of Lines": 1}, {"type": "Feature", "Name": "Forest Hill", "geometry": {"type": "Point", "coordinates": [-0.052834088795661, 51.439774896719264]}, "Station ID": "910GFORESTH", "Zone": "3", "Lines": "Overground", "Number of Lines": 1}, {"type": "Feature", "Name": "Forest Gate", "geometry": {"type": "Point", "coordinates": [0.024121670114462, 51.54954970448148]}, "Station ID": "910GFRSTGT", "Zone": "3", "Lines": "Crossrail", "Number of Lines": 1}, {"type": "Feature", "Name": "Fulwell", "geometry": {"type": "Point", "coordinates": [-0.34967, 51.43375]}, "Station ID": "910GFULWELL", "Zone": "6", "Lines": "Crossrail 2", "Number of Lines": 1}, {"type": "Feature", "Name": "Gidea Park", "geometry": {"type": "Point", "coordinates": [0.20528801136479, 51.58161569679698]}, "Station ID": "910GGIDEAPK", "Zone": "6", "Lines": "Crossrail", "Number of Lines": 1}, {"type": "Feature", "Name": "Goodmayes", "geometry": {"type": "Point", "coordinates": [0.11099661132316, 51.565501496790716]}, "Station ID": "910GGODMAYS", "Zone": "4", "Lines": "Crossrail", "Number of Lines": 1}, {"type": "Feature", "Name": "Gospel Oak", "geometry": {"type": "Point", "coordinates": [-0.152152888778603, 51.555677396792255]}, "Station ID": "910GGOSPLOK", "Zone": "2", "Lines": "Overground", "Number of Lines": 1}, {"type": "Feature", "Name": "Hackney Central", "geometry": {"type": "Point", "coordinates": [-0.057317188747216, 51.547062796784594]}, "Station ID": "910GHACKNYC", "Zone": "2", "Lines": "Overground", "Number of Lines": 1}, {"type": "Feature", "Name": "Hackney Wick", "geometry": {"type": "Point", "coordinates": [-0.024834388736903, 51.543412996781505]}, "Station ID": "910GHACKNYW", "Zone": "2", "Lines": "Overground", "Number of Lines": 1}, {"type": "Feature", "Name": "Haggerston", "geometry": {"type": "Point", "coordinates": [-0.075537788757763, 51.53892929678013]}, "Station ID": "910GHAGGERS", "Zone": "2", "Lines": "Overground", "Number of Lines": 1}, {"type": "Feature", "Name": "Hackney Downs", "geometry": {"type": "Point", "coordinates": [-0.061151088747704, 51.54907209678591]}, "Station ID": "910GHAKNYNM", "Zone": "2", "Lines": "Overground", "Number of Lines": 1}, {"type": "Feature", "Name": "Hampton", "geometry": {"type": "Point", "coordinates": [-0.37215, 51.41591]}, "Station ID": "910GHAMPTON", "Zone": "6", "Lines": "Crossrail 2", "Number of Lines": 1}, {"type": "Feature", "Name": "Hampton Wick", "geometry": {"type": "Point", "coordinates": [-0.31234, 51.41455]}, "Station ID": "910GHAMWICK", "Zone": "6", "Lines": "Crossrail 2", "Number of Lines": 1}, {"type": "Feature", "Name": "Hanwell", "geometry": {"type": "Point", "coordinates": [-0.338595788869588, 51.51180859676921]}, "Station ID": "910GHANWELL", "Zone": "4", "Lines": "Crossrail", "Number of Lines": 1}, {"type": "Feature", "Name": "Hayes & Harlington", "geometry": {"type": "Point", "coordinates": [-0.419623688904869, 51.502969896765194]}, "Station ID": "910GHAYESAH", "Zone": "5", "Lines": "Crossrail", "Number of Lines": 1}, {"type": "Feature", "Name": "Hampton Court", "geometry": {"type": "Point", "coordinates": [-0.342598219807308, 51.4019791448366]}, "Station ID": "910GHCRT", "Zone": "6", "Lines": "Crossrail 2", "Number of Lines": 1}, {"type": "Feature", "Name": "Headstone Lane", "geometry": {"type": "Point", "coordinates": [-0.356631788835075, 51.60241749682551]}, "Station ID": "910GHEDSTNL", "Zone": "5", "Lines": "Overground", "Number of Lines": 1}, {"type": "Feature", "Name": "Highbury & Islington (Rail)", "geometry": {"type": "Point", "coordinates": [-0.105, 51.54597]}, "Station ID": "910GHGHI", "Zone": "2", "Lines": "Overground", "Number of Lines": 1}, {"type": "Feature", "Name": "Highams Park", "geometry": {"type": "Point", "coordinates": [-0.000197988697262, 51.60891779682079]}, "Station ID": "910GHGHMSPK", "Zone": "4", "Lines": "Overground", "Number of Lines": 1}, {"type": "Feature", "Name": "Hampstead Heath", "geometry": {"type": "Point", "coordinates": [-0.165335188783757, 51.555245996792294]}, "Station ID": "910GHMPSTDH", "Zone": "2", "Lines": "Overground", "Number of Lines": 1}, {"type": "Feature", "Name": "Homerton", "geometry": {"type": "Point", "coordinates": [-0.042503688741728, 51.547069996784195]}, "Station ID": "910GHOMRTON", "Zone": "2", "Lines": "Overground", "Number of Lines": 1}, {"type": "Feature", "Name": "Honor Oak Park", "geometry": {"type": "Point", "coordinates": [-0.045361288788121, 51.450013196725266]}, "Station ID": "910GHONROPK", "Zone": "3", "Lines": "Overground", "Number of Lines": 1}, {"type": "Feature", "Name": "Hoxton", "geometry": {"type": "Point", "coordinates": [-0.075625088761269, 51.531469996775556]}, "Station ID": "910GHOXTON", "Zone": "1/2", "Lines": "Overground", "Number of Lines": 1}, {"type": "Feature", "Name": "Harringay Green Lanes", "geometry": {"type": "Point", "coordinates": [-0.097820988748259, 51.57724229680412]}, "Station ID": "910GHRGYGL", "Zone": "3", "Lines": "Overground", "Number of Lines": 1}, {"type": "Feature", "Name": "Harold Wood", "geometry": {"type": "Point", "coordinates": [0.233006111379948, 51.59268119680253]}, "Station ID": "910GHRLDWOD", "Zone": "6", "Lines": "Crossrail", "Number of Lines": 1}, {"type": "Feature", "Name": "Hatch End", "geometry": {"type": "Point", "coordinates": [-0.368613288836501, 51.60946399683011]}, "Station ID": "910GHTCHEND", "Zone": "6", "Lines": "Overground", "Number of Lines": 1}, {"type": "Feature", "Name": "Ilford", "geometry": {"type": "Point", "coordinates": [0.069917111305178, 51.55904859678818]}, "Station ID": "910GILFORD", "Zone": "4", "Lines": "Crossrail", "Number of Lines": 1}, {"type": "Feature", "Name": "Iver", "geometry": {"type": "Point", "coordinates": [-0.506544488936156, 51.50864339677012]}, "Station ID": "910GIVER", "Zone": "X", "Lines": "Crossrail", "Number of Lines": 1}, {"type": "Feature", "Name": "Kensal Rise", "geometry": {"type": "Point", "coordinates": [-0.220225588814095, 51.53440809678075]}, "Station ID": "910GKENR", "Zone": "2", "Lines": "Overground", "Number of Lines": 1}, {"type": "Feature", "Name": "Kingston", "geometry": {"type": "Point", "coordinates": [-0.30182, 51.41287]}, "Station ID": "910GKGSTON", "Zone": "6", "Lines": "Crossrail 2", "Number of Lines": 1}, {"type": "Feature", "Name": "Kilburn High Road", "geometry": {"type": "Point", "coordinates": [-0.191495088801738, 51.537665796782115]}, "Station ID": "910GKLBRNHR", "Zone": "2", "Lines": "Overground", "Number of Lines": 1}, {"type": "Feature", "Name": "Kempton Park", "geometry": {"type": "Point", "coordinates": [-0.40948, 51.42099]}, "Station ID": "910GKMPTNPK", "Zone": "X", "Lines": "Crossrail 2", "Number of Lines": 1}, {"type": "Feature", "Name": "Kentish Town West", "geometry": {"type": "Point", "coordinates": [-0.146750388780558, 51.54707549678687]}, "Station ID": "910GKNTSHTW", "Zone": "2", "Lines": "Overground", "Number of Lines": 1}, {"type": "Feature", "Name": "Langley", "geometry": {"type": "Point", "coordinates": [-0.541210388950089, 51.50794669677024]}, "Station ID": "910GLANGLEY", "Zone": "X", "Lines": "Crossrail", "Number of Lines": 1}, {"type": "Feature", "Name": "Leyton Midland Road", "geometry": {"type": "Point", "coordinates": [-0.007268088718236, 51.56953219679692]}, "Station ID": "910GLEYTNMR", "Zone": "3", "Lines": "Overground", "Number of Lines": 1}, {"type": "Feature", "Name": "Liverpool Street (Rail)", "geometry": {"type": "Point", "coordinates": [-0.0807, 51.5181]}, "Station ID": "910GLIVST", "Zone": "1", "Lines": "Overground, Crossrail", "Number of Lines": 2}, {"type": "Feature", "Name": "Liverpool Street (Crossrail)", "geometry": {"type": "Point", "coordinates": [-0.0842, 51.5181]}, "Station ID": "910GLIVSTLL", "Zone": "1", "Lines": "Crossrail", "Number of Lines": 1}, {"type": "Feature", "Name": "London Fields", "geometry": {"type": "Point", "coordinates": [-0.057854888750166, 51.54115719678102]}, "Station ID": "910GLONFLDS", "Zone": "2", "Lines": "Overground", "Number of Lines": 1}, {"type": "Feature", "Name": "Leytonstone High Road", "geometry": {"type": "Point", "coordinates": [0.007712211284655, 51.56390009679304]}, "Station ID": "910GLYTNSHR", "Zone": "3", "Lines": "Overground", "Number of Lines": 1}, {"type": "Feature", "Name": "Malden Manor", "geometry": {"type": "Point", "coordinates": [-0.2612451, 51.3847246]}, "Station ID": "910GMALDENM", "Zone": "4", "Lines": "Crossrail 2", "Number of Lines": 1}, {"type": "Feature", "Name": "Manor Park", "geometry": {"type": "Point", "coordinates": [0.045781611293266, 51.55244829678492]}, "Station ID": "910GMANRPK", "Zone": "3/4", "Lines": "Crossrail", "Number of Lines": 1}, {"type": "Feature", "Name": "Maidenhead", "geometry": {"type": "Point", "coordinates": [-0.722757502466049, 51.518319481792055]}, "Station ID": "910GMDNHEAD", "Zone": "X", "Lines": "Crossrail", "Number of Lines": 1}, {"type": "Feature", "Name": "Motspur Park", "geometry": {"type": "Point", "coordinates": [-0.23962, 51.39485]}, "Station ID": "910GMOTSPRP", "Zone": "4", "Lines": "Crossrail 2", "Number of Lines": 1}, {"type": "Feature", "Name": "Maryland", "geometry": {"type": "Point", "coordinates": [0.006227611275838, 51.546198796782306]}, "Station ID": "910GMRYLAND", "Zone": "3", "Lines": "Crossrail", "Number of Lines": 1}, {"type": "Feature", "Name": "New Malden", "geometry": {"type": "Point", "coordinates": [-0.25576, 51.40394]}, "Station ID": "910GNEWMLDN", "Zone": "4", "Lines": "Crossrail 2", "Number of Lines": 1}, {"type": "Feature", "Name": "New Southgate", "geometry": {"type": "Point", "coordinates": [-0.143084299183598, 51.61407252211044]}, "Station ID": "910GNEWSGAT", "Zone": "4", "Lines": "Crossrail 2", "Number of Lines": 1}, {"type": "Feature", "Name": "New Cross Gate", "geometry": {"type": "Point", "coordinates": [-0.040266988774352, 51.47543279674057]}, "Station ID": "910GNEWXGTE", "Zone": "2", "Lines": "Overground", "Number of Lines": 1}, {"type": "Feature", "Name": "Northumberland Park", "geometry": {"type": "Point", "coordinates": [-0.05379, 51.60233]}, "Station ID": "910GNMBRLPK", "Zone": "3", "Lines": "Crossrail 2", "Number of Lines": 1}, {"type": "Feature", "Name": "Norwood Junction", "geometry": {"type": "Point", "coordinates": [-0.074624788823633, 51.39715339669399]}, "Station ID": "910GNORWDJ", "Zone": "4", "Lines": "Overground", "Number of Lines": 1}, {"type": "Feature", "Name": "Norbiton", "geometry": {"type": "Point", "coordinates": [-0.284115, 51.4122896]}, "Station ID": "910GNRBITON", "Zone": "5", "Lines": "Crossrail 2", "Number of Lines": 1}, {"type": "Feature", "Name": "New Cross", "geometry": {"type": "Point", "coordinates": [-0.032341188770877, 51.47663109674108]}, "Station ID": "910GNWCRELL", "Zone": "2", "Lines": "Overground", "Number of Lines": 1}, {"type": "Feature", "Name": "Paddington (Crossrail)", "geometry": {"type": "Point", "coordinates": [-0.1777, 51.5162]}, "Station ID": "910GPADTLL", "Zone": "1", "Lines": "Crossrail", "Number of Lines": 1}, {"type": "Feature", "Name": "Paddington (Rail)", "geometry": {"type": "Point", "coordinates": [-0.1777, 51.517]}, "Station ID": "910GPADTON", "Zone": "1", "Lines": "Crossrail", "Number of Lines": 1}, {"type": "Feature", "Name": "Queens Road Peckham", "geometry": {"type": "Point", "coordinates": [-0.056991888781153, 51.47406129674014]}, "Station ID": "910GPCKHMQD", "Zone": "2", "Lines": "Overground", "Number of Lines": 1}, {"type": "Feature", "Name": "Peckham Rye", "geometry": {"type": "Point", "coordinates": [-0.07038638878825, 51.469449496737674]}, "Station ID": "910GPCKHMRY", "Zone": "2", "Lines": "Overground", "Number of Lines": 1}, {"type": "Feature", "Name": "Penge West", "geometry": {"type": "Point", "coordinates": [-0.060636388808971, 51.41747759670595]}, "Station ID": "910GPENEW", "Zone": "4", "Lines": "Overground", "Number of Lines": 1}, {"type": "Feature", "Name": "Ponders End", "geometry": {"type": "Point", "coordinates": [-0.03478, 51.64291]}, "Station ID": "910GPNDRSEN", "Zone": "5", "Lines": "Crossrail 2", "Number of Lines": 1}, {"type": "Feature", "Name": "Raynes Park", "geometry": {"type": "Point", "coordinates": [-0.23053, 51.40898]}, "Station ID": "910GRAYNSPK", "Zone": "4", "Lines": "Crossrail 2", "Number of Lines": 1}, {"type": "Feature", "Name": "Rectory Road", "geometry": {"type": "Point", "coordinates": [-0.068444588745959, 51.55863849679196]}, "Station ID": "910GRCTRYRD", "Zone": "2", "Lines": "Overground", "Number of Lines": 1}, {"type": "Feature", "Name": "Reading", "geometry": {"type": "Point", "coordinates": [-0.972913789146386, 51.45924089674594]}, "Station ID": "910GRDNGSTN", "Zone": "X", "Lines": "Crossrail", "Number of Lines": 1}, {"type": "Feature", "Name": "Romford", "geometry": {"type": "Point", "coordinates": [0.183417211353764, 51.574910396793776]}, "Station ID": "910GROMFORD", "Zone": "6", "Lines": "Overground, Crossrail", "Number of Lines": 2}, {"type": "Feature", "Name": "Rotherhithe", "geometry": {"type": "Point", "coordinates": [-0.05212158876676, 51.50102909675642]}, "Station ID": "910GRTHERHI", "Zone": "2", "Lines": "Overground", "Number of Lines": 1}, {"type": "Feature", "Name": "South Acton", "geometry": {"type": "Point", "coordinates": [-0.270096588849068, 51.4995730967604]}, "Station ID": "910GSACTON", "Zone": "3", "Lines": "Overground", "Number of Lines": 1}, {"type": "Feature", "Name": "Southbury", "geometry": {"type": "Point", "coordinates": [-0.052530888698232, 51.64865679684671]}, "Station ID": "910GSBURY", "Zone": "5", "Lines": "Overground", "Number of Lines": 1}, {"type": "Feature", "Name": "Seven Sisters (Rail)", "geometry": {"type": "Point", "coordinates": [-0.07508, 51.5832]}, "Station ID": "910GSEVNSIS", "Zone": "3", "Lines": "Overground, Crossrail 2", "Number of Lines": 2}, {"type": "Feature", "Name": "Shadwell (Rail)", "geometry": {"type": "Point", "coordinates": [-0.05687, 51.5113]}, "Station ID": "910GSHADWEL", "Zone": "2", "Lines": "Overground", "Number of Lines": 1}, {"type": "Feature", "Name": "Shenfield", "geometry": {"type": "Point", "coordinates": [0.330607211432899, 51.63113999682131]}, "Station ID": "910GSHENFLD", "Zone": "12", "Lines": "Crossrail", "Number of Lines": 1}, {"type": "Feature", "Name": "Shepperton", "geometry": {"type": "Point", "coordinates": [-0.447120686136675, 51.39689438503694]}, "Station ID": "910GSHEPRTN", "Zone": "X", "Lines": "Crossrail 2", "Number of Lines": 1}, {"type": "Feature", "Name": "South Hampstead", "geometry": {"type": "Point", "coordinates": [-0.178824488795266, 51.541341496784085]}, "Station ID": "910GSHMPSTD", "Zone": "2", "Lines": "Overground", "Number of Lines": 1}, {"type": "Feature", "Name": "Shoreditch High Street", "geometry": {"type": "Point", "coordinates": [-0.076071088765243, 51.52328889677059]}, "Station ID": "910GSHRDHST", "Zone": "1", "Lines": "Overground", "Number of Lines": 1}, {"type": "Feature", "Name": "Silver Street", "geometry": {"type": "Point", "coordinates": [-0.067203988719379, 51.61486059682638]},